id;title;price;rooms;bathrooms;size;parking_space;type;number;neighborhood_name;population;houses;area;street_name;zip_code;flood_quota;latitude;longitude;modality_name;company_name
2;Casa à Venda em Blumenau no bairro Itoupava Norte;1500000.0;3;4;325.0;2;casa;136;Itoupava Norte;15648;5258;5.0;Rua Olga Krutzsch;89053-073;15.0;-26.8785986;-49.0794927;venda;portal_imoveis
3;Casa para Alugar em Blumenau no bairro Ponta Aguda;4200.0;5;3;245.65;2;casa;178;Ponta Aguda;9880;3233;7.0;Rua Venezuela;89050-310;;-26.9144216;-49.0642226;locação;portal_imoveis
4;Casa à Venda em Blumenau no bairro Progresso;560000.0;3;2;822.26;1;casa;97;Progresso;15005;4852;7.0;Rua Germano Roeder;89026-250;;-26.9654392;-49.0763192;venda;portal_imoveis
8;Oportunidade! Apartamento 62,16m² Área PV abaixo valor mercado Blumenau/SC - Rafael Matias;111080.0;2;1;62.0;1;apartamento;;Itoupava Central;28164;8715;45.0;Rua Professor Jacob Ineichen;89066-598;;-26.8426432;-49.1113311;venda;zap_imoveis
9;Apartamento para Alugar em Blumenau no bairro Boa Vista;1300.0;2;1;95.22;1;apartamento;1758;Victor Konder;4612;1990;1.0;Rua Carlos Rischbieter;89012-200;16.6;-26.9077427;-49.0732069;locação;portal_imoveis
10;Casa à Venda em Blumenau no bairro Itoupava Norte;950000.0;3;4;259.5;2;casa;21;Itoupava Norte;15648;5258;5.0;Rua Xaverio Eble;89053-460;;-26.8717243;-49.0778422;venda;portal_imoveis
11;Apartamento à Venda em Blumenau no bairro Vila Nova;380000.0;4;2;150.0;1;apartamento;163;Vila Nova;9962;3884;2.0;Rua Theodoro Holtrup;89035-300;13.35;-26.9097018;-49.0825406;venda;portal_imoveis
12;Casa à Venda em Blumenau no bairro Velha;650000.0;4;4;274.77;2;casa;137;Velha;15373;5470;6.0;Rua Bruno Hildebrand;89040-090;;-26.9210608;-49.1148786;venda;portal_imoveis
13;Lote/Terreno à Venda em Blumenau no bairro Vila Nova;2500000.0;0;0;1927.0;0;loteterreno;233;Vila Nova;9962;3884;2.0;Rua Theodoro Holtrup;89035-300;13.35;-26.9097018;-49.0825406;venda;portal_imoveis
14;Excelente Oportunidade!;111080.0;2;1;62.0;1;apartamento;;Itoupava Central;28164;8715;45.0;Rua Professor Jacob Ineichen;89066-598;;-26.8426432;-49.1113311;venda;zap_imoveis
17;|Terreno no Bairro Valparaíso em Blumenau Próximo Nagguchi Apenas R$ 120.000,00 || LA VITA IMÓVEIS|;120000.0;0;0;574.0;0;loteterreno;;Valparaiso;5280;1774;1.0;Rua Antonio Hank;89023-370;;-26.9549408;-49.08355;venda;zap_imoveis
18;Terreno residencial para venda no Bairro Garcia, em Blumenau!;120000.0;0;0;417.0;0;loteterreno;;Garcia;15911;5336;5.0;Rua Evaldo Tensini;89022-220;;-26.9483269;-49.0663053;venda;zap_imoveis
19;Casa à Venda em Blumenau no bairro Itoupava Norte;1100000.0;5;3;431.85;3;casa;385;Itoupava Norte;15648;5258;5.0;Rua Ary Taborda Ribas;89053-520;;-26.8760919;-49.0823522;venda;portal_imoveis
21;Casa à Venda em Blumenau no bairro Vorstadt;1600000.0;3;5;372.5;4;casa;403;Vorstadt;4269;1690;4.0;Alameda Ralf Bruno Gross;89015-430;16.35;-26.8989653;-49.0420927;venda;portal_imoveis
22;Apartamento à Venda em Blumenau no bairro Itoupava Norte;720000.0;2;1;215.98;2;apartamento;;Itoupava Norte;15648;5258;5.0;Rua Sao Valentin;89053-330;13.6;-26.8735371;-49.0835406;venda;portal_imoveis
23;Apartamento à Venda em Blumenau no bairro Itoupava Norte;750000.0;3;1;140.47;2;apartamento;;Itoupava Norte;15648;5258;5.0;Rua Sao Valentin;89053-330;13.6;-26.8735371;-49.0835406;venda;portal_imoveis
24;Terreno localizado em loteamento residencial, contendo área total de 922,00 m², fazendo frente em 21;120000.0;0;0;922.0;0;loteterreno;;Garcia;15911;5336;5.0;Rua Christiano Theiss;89020-410;10.8;-26.9293031;-49.0561492;venda;zap_imoveis
27;Apartamento 1 dormitório Semi-mobiliado a venda Velha Central;120000.0;1;1;28.0;0;apartamento;;Velha Central;18779;6119;7.0;Rua Silvio Santiago;89046-065;;-26.9373519;-49.1409194;venda;zap_imoveis
28;Apartamento 1 dormitório Semi-mobiliado a venda Velha Central;120000.0;1;1;28.0;0;apartamento;;Velha Central;18779;6119;7.0;Rua Silvio Santiago;89046-065;;-26.9373519;-49.1409194;venda;zap_imoveis
29;Apartamento à Venda em Blumenau no bairro Itoupava Norte;750000.0;2;3;215.98;2;apartamento;;Itoupava Norte;15648;5258;5.0;Rua Sao Valentin;89053-330;13.6;-26.8735371;-49.0835406;venda;portal_imoveis
30;Apartamento à Venda em Blumenau no bairro Itoupava Norte;790000.0;3;1;140.47;2;apartamento;;Itoupava Norte;15648;5258;5.0;Rua Sao Valentin;89053-330;13.6;-26.8735371;-49.0835406;venda;portal_imoveis
31;Apartamento à Venda em Blumenau no bairro Itoupava Norte;750000.0;3;1;136.98;2;apartamento;;Itoupava Norte;15648;5258;5.0;Rua Sao Valentin;89053-330;13.6;-26.8735371;-49.0835406;venda;portal_imoveis
32;Apartamento à Venda em Blumenau no bairro Itoupava Norte;1210000.0;3;1;140.47;2;apartamento;;Itoupava Norte;15648;5258;5.0;Rua Sao Valentin;89053-330;13.6;-26.8735371;-49.0835406;venda;portal_imoveis
34;Saia do aluguel usando seu FGTS;120000.0;2;1;44.0;1;apartamento;;Badenfurt;8650;2753;12.0;Rua Heinrich Hemmer;89070-272;18.95;-26.8820467;-49.1224641;venda;zap_imoveis
35;Casa chalé no bairro Progresso;125000.0;3;1;45.0;1;casa;;Progresso;15005;4852;7.0;Rua Hermann Baehr;89027-720;;-27.005345;-49.0668641;venda;zap_imoveis
39;Lote/Terreno à Venda em Blumenau no bairro Escola Agrícola;1200000.0;0;0;2200.0;0;loteterreno;;Do Salto;4558;1445;2.0;Rua Jose Deeke;89031-400;;-26.8911422;-49.1015605;venda;portal_imoveis
40;Casa à Venda em Blumenau no bairro Itoupava Central;1319000.0;5;4;860.0;4;casa;542;Itoupava Central;28164;8715;45.0;Rua Norma Hadlich;89069-040;;-26.8066061;-49.0942941;venda;portal_imoveis
41;Lote/Terreno à Venda em Blumenau no bairro Vila Nova;500000.0;0;0;300.0;0;loteterreno;;Vila Nova;9962;3884;2.0;Rua Jose De Alencar;89035-430;11.4;-26.8984135;-49.0896278;venda;portal_imoveis
42;Casa à Venda em Blumenau no bairro Fortaleza;1400000.0;5;6;650.0;3;casa;141;Fortaleza;13196;4212;5.0;Rua Babilonia;89053-490;;-26.870607;-49.0763179;venda;portal_imoveis
43;Casa à Venda em Blumenau no bairro Itoupava Central;2200000.0;4;4;700.0;2;casa;389;Itoupava Central;28164;8715;45.0;Rua Flamboyant;89062-253;;-26.8286471;-49.0868367;venda;portal_imoveis
44;Vendo Apartamento no Res. Hamburgo no Badenfurt em Blumenau SC;132000.0;2;1;51.0;1;apartamento;;Salto Weissbach;5213;1556;4.0;Rua Bahia;89032-525;14.8;-26.8867411;-49.0937241;venda;zap_imoveis
46;Excelente Oportunidade!;133900.0;2;1;51.0;1;apartamento;;Velha;15373;5470;6.0;Rua Governador Jorge Lacerda;89045-000;;-26.924502;-49.1025403;venda;zap_imoveis
47;Oportunidade! Apartamento 51,02m² Área PV abaixo valor mercado Blumenau/SC - Rafael Matias;133900.0;2;1;51.0;1;apartamento;;Velha;15373;5470;6.0;Rua Governador Jorge Lacerda;89045-000;;-26.924502;-49.1025403;venda;zap_imoveis
49;Casa à Venda em Blumenau no bairro Garcia;780000.0;4;2;276.76;2;casa;394;Garcia;15911;5336;5.0;Rua Engenheiro Odebrecht;89021-200;13.6;-26.9408836;-49.0584558;venda;portal_imoveis
50;Apartamento à Venda em Blumenau no bairro Itoupava Central;280000.0;2;1;99.0;1;apartamento;4500;Itoupava Central;28164;8715;45.0;Rua Gustavo Zimmermann;89063-003;18.3;-26.8036671;-49.0875859;venda;portal_imoveis
51;Casa à Venda em Blumenau no bairro Fortaleza;695000.0;2;3;453.75;3;casa;318;Fortaleza;13196;4212;5.0;Rua Miguel Servet;89056-300;16.2;-26.8754639;-49.0736358;venda;portal_imoveis
52;Casa à Venda em Blumenau no bairro Salto;750000.0;4;4;783.0;3;casa;185;Salto Do Norte;8441;2779;7.0;Rua Osni Jensen;89065-280;12.5;-26.8778205;-49.099843;venda;portal_imoveis
53;Apartamento à Venda em Blumenau no bairro Centro;600617.0;1;1;73.0;1;apartamento;148;Centro;5004;1622;2.0;Rua Namy Deeke;89010-130;13.95;-26.917538;-49.0677202;venda;portal_imoveis
55;Lotes residenciais à venda no bairro Itoupava Central – Blumenau/SC;135000.0;0;0;333.0;0;loteterreno;;Itoupava Central;28164;8715;45.0;Rua Ricardo Georg;89069-100;;-26.7968587;-49.0994516;venda;zap_imoveis
59;Apartamento à Venda em Blumenau no bairro Centro;815650.0;1;2;88.56;1;apartamento;148;Centro;5004;1622;2.0;Rua Namy Deeke;89010-130;13.95;-26.917538;-49.0677202;venda;portal_imoveis
60;Casa à Venda em Blumenau no bairro Itoupava Norte;1100000.0;4;4;502.0;4;casa;264;Itoupava Norte;15648;5258;5.0;Rua Almirante Armin Zimmermann;89053-500;17.95;-26.8776068;-49.0849655;venda;portal_imoveis
62;Lote/Terreno à Venda em Blumenau no bairro Ponta Aguda;290000.0;0;0;375.0;0;loteterreno;3065;Ponta Aguda;9880;3233;7.0;Rua Silvano Candido Da Silva Senior;89050-280;;-26.9004052;-49.0464149;venda;portal_imoveis
63;Sobrado à Venda em Blumenau no bairro Escola Agrícola;1425000.0;3;3;683.0;2;sobrado;181;Do Salto;4558;1445;2.0;Rua Roland Riediger;89031-031;;-26.8923183;-49.0936116;venda;portal_imoveis
65;Lindo terreno pronto para construir na Badenfurt próximo a Zeus do Brasil;139000.0;0;0;420.0;0;loteterreno;;Badenfurt;8650;2753;12.0;Rua Gregorio Link;89072-050;;-26.878568;-49.1631041;venda;zap_imoveis
66;Terreno localizado no bairro Fortaleza!;139900.0;0;0;340.0;0;loteterreno;;Itoupava Norte;15648;5258;5.0;Rua Sao Cristovao;89053-590;10.05;-26.8707056;-49.0879875;venda;zap_imoveis
67;Lote/Terreno para venda possui 450 metros quadrados em Progresso - Blumenau - SC;140000.0;0;0;450.0;0;loteterreno;;Progresso;15005;4852;7.0;Rua Bruno Schreiber;89027-400;;-26.9936705;-49.0998762;venda;zap_imoveis
70;Casa à Venda em Blumenau no bairro Ponta Aguda;850000.0;3;3;240.0;2;casa;09;Ponta Aguda;9880;3233;7.0;Rua Nestor Seara Heusi;89050-200;;-26.9078156;-49.047159;venda;portal_imoveis
71;Casa à Venda em Blumenau no bairro Testo Salto;790000.0;3;3;516.33;2;casa;78;Testo Salto;7065;2135;15.0;Rua Bruno Morell;89074-580;;-26.8570593;-49.1384688;venda;portal_imoveis
73;Casa à Venda em Blumenau no bairro Tribess;530000.0;3;1;107.0;2;casa;;Tribess;8503;2691;3.0;Rua Hermann Tribess;89055-400;;-26.8764169;-49.0587461;venda;portal_imoveis
74;Possibilidade de 100 % financiado!;140000.0;2;1;188.0;0;casa;;Itoupavazinha;17560;5358;12.0;Rua Radialista Rodolfo Sestrem;89066-383;;-26.8514283;-49.1082135;venda;zap_imoveis
76;Terreno no bairro Itoupavazinha no loteamento Aquárius Lot.40, com área total de 438m² Zoneamento Z;140000.0;0;0;438.0;0;loteterreno;;Itoupavazinha;17560;5358;12.0;Rua Joao Cardoso;89070-521;;-26.8622493;-49.1238427;venda;zap_imoveis
77;Terreno Testo Salto;140000.0;0;0;360.0;0;loteterreno;;Testo Salto;7065;2135;15.0;Rua Christiano Karsten;89074-400;;-26.8530331;-49.1434161;venda;zap_imoveis
79;Casa à Venda em Blumenau no bairro Tribess;490000.0;3;1;103.0;2;casa;;Tribess;8503;2691;3.0;Rua Hermann Tribess;89055-400;;-26.8764169;-49.0587461;venda;portal_imoveis
80;Casa à Venda em Blumenau no bairro Tribess;490000.0;3;1;103.0;2;casa;2200;Tribess;8503;2691;3.0;Rua Hermann Tribess;89055-400;;-26.8764169;-49.0587461;venda;portal_imoveis
81;Casa à Venda em Blumenau no bairro Tribess;490000.0;3;1;103.0;2;casa;;Tribess;8503;2691;3.0;Rua Hermann Tribess;89055-400;;-26.8764169;-49.0587461;venda;portal_imoveis
82;Apartamento para Alugar em Blumenau no bairro Vila Nova;1900.0;2;1;110.48;1;apartamento;2348;Vila Nova;9962;3884;2.0;Rua Benjamin Constant;89037-502;12.1;-26.8948773;-49.0987164;locação;portal_imoveis
83;Casa à Venda em Blumenau no bairro Progresso;380000.0;3;2;455.0;2;casa;67;Progresso;15005;4852;7.0;Rua Erico Verissimo;89026-275;;-26.9685845;-49.0749231;venda;portal_imoveis
84;LINDO APARTAMENTO SEMIMOBILIADO NO BAIRRO PROGRESSO.;145000.0;2;1;41.0;1;apartamento;;Progresso;15005;4852;7.0;Rua Santa Maria;89027-200;;-26.983649;-49.0781831;venda;zap_imoveis
85;Terreno no Bairro Ponta Aguda, bem localizado, com 534,80m².;145000.0;0;0;534.0;0;loteterreno;;Ponta Aguda;9880;3233;7.0;Rua August Friedrich Wilhelm Becker;89051-090;;-26.906535;-49.0653098;venda;zap_imoveis
87;Terreno no Bairro Testo Salto - Rua sem saída;149000.0;0;0;299.0;0;loteterreno;;Testo Salto;7065;2135;15.0;Rua Bertoldo Joao Correa;89074-470;;-26.8553029;-49.1456477;venda;zap_imoveis
88;Terreno com 700,17 metros quadrados, apto para construir, possui pequeno declive.;149000.0;0;0;700.0;0;loteterreno;;Testo Salto;7065;2135;15.0;Rua Mina Nova;89074-350;;-26.8611092;-49.1415386;venda;zap_imoveis
89;Casa à Venda em Blumenau no bairro Testo Salto;370000.0;2;1;68.74;1;casa;2691;Testo Salto;7065;2135;15.0;Rua Werner Duwe;89074-178;13.55;-26.8504419;-49.1519382;venda;portal_imoveis
90;Casa à Venda em Blumenau no bairro Itoupava Norte;280000.0;2;1;100.0;1;casa;88;Itoupava Norte;15648;5258;5.0;Rua Doutor Edgar Barreto;89053-540;;-26.8741176;-49.081574;venda;portal_imoveis
91;Casa à Venda em Blumenau no bairro Progresso;580000.0;3;2;960.0;2;casa;1284;Progresso;15005;4852;7.0;Rua Avelino Pering;89027-440;;-26.9852457;-49.0844607;venda;portal_imoveis
92;Casa à Venda em Blumenau no bairro Progresso;420000.0;3;2;825.0;2;casa;1274;Progresso;15005;4852;7.0;Rua Avelino Pering;89027-440;;-26.9852457;-49.0844607;venda;portal_imoveis
93;Apartamento à Venda em Blumenau no bairro Itoupavazinha;280000.0;3;1;96.0;1;apartamento;90;Itoupavazinha;17560;5358;12.0;Rua Jose Stein;89066-430;;-26.8530595;-49.1171885;venda;portal_imoveis
94;LOFT a venda semimobiliado no bairro da Velha próximo ao Tomio.;149999.0;1;1;30.0;1;kitnet;;Itoupava Seca;4464;1616;3.0;Rua Engenheiro Paul Werner;89030-101;20.7;-26.8962619;-49.0824227;venda;zap_imoveis
95;Terreno na rua Arapongas na Ponta Aguda;150000.0;0;0;420.0;0;loteterreno;;Ponta Aguda;9880;3233;7.0;Rua Arapongas;89050-195;;-26.9096309;-49.0512373;venda;zap_imoveis
96;Blumenau - Terreno Padrão - Itoupava Central;150000.0;1;1;345.0;0;loteterreno;;Itoupava Central;28164;8715;45.0;Rua Ricardo Georg;89069-100;;-26.7968587;-49.0994516;venda;zap_imoveis
100;Apartamento à Venda em Blumenau no bairro Salto do Norte;255423.0;2;1;55.48;1;apartamento;832;Salto Do Norte;8441;2779;7.0;Rua Pomerode;89065-301;14.75;-26.8785312;-49.1012611;venda;portal_imoveis
101;Apartamento à Venda em Blumenau no bairro Salto do Norte;269718.0;2;2;63.79;1;apartamento;832;Salto Do Norte;8441;2779;7.0;Rua Pomerode;89065-301;14.75;-26.8785312;-49.1012611;venda;portal_imoveis
103;Apartamento à Venda em Blumenau no bairro Victor Konder;860000.0;3;4;230.0;3;apartamento;130;Victor Konder;4612;1990;1.0;Rua Victor Konder;89012-170;10.3;-26.9113888;-49.0755186;venda;portal_imoveis
104;Conheça agora um excelente terreno na Itoupava Central, uma ótima opção de investimento a venda aqui;150000.0;0;0;480.0;0;loteterreno;;Agua Verde;16186;5526;5.0;Rua Rudolf Roedel;89037-405;;-26.9015148;-49.1122971;venda;zap_imoveis
109;Lote/Terreno à Venda em Blumenau no bairro Água Verde;1500000.0;0;0;1028.0;0;loteterreno;143;Agua Verde;16186;5526;5.0;Rua Rodolfo Weckerle;89037-508;;-26.9075879;-49.0998925;venda;portal_imoveis
111;Casa para Alugar em Blumenau no bairro Itoupava Norte;1200.0;2;1;60.0;0;casa;191;Itoupava Norte;15648;5258;5.0;Rua Vinte E Cinco De Novembro;89053-110;;-26.8777978;-49.0760725;locação;portal_imoveis
112;Casa à Venda em Blumenau no bairro Escola Agrícola;750000.0;3;3;168.22;2;casa;;Escola Agricola;12145;3906;4.0;Rua Francisco Da Cunha Silveira;89037-695;;-26.8944032;-49.0938482;venda;portal_imoveis
113;Apartamento à Venda em Blumenau no bairro Itoupava Seca;475000.0;2;2;102.0;1;apartamento;365;Itoupava Seca;4464;1616;3.0;Rua Teresopolis;89030-110;14.75;-26.904098;-49.0807824;venda;portal_imoveis
114;Lote/Terreno para Alugar em Blumenau no bairro Fortaleza;1500.0;0;0;311.5;0;loteterreno;;Tribess;8503;2691;3.0;Rua Francisco Vahldieck;89057-700;18.35;-26.8835204;-49.0721619;locação;portal_imoveis
115;Lote/Terreno à Venda em Blumenau no bairro Da Glória;220000.0;1;1;5192.5;1;loteterreno;805;Da Gloria;6228;2096;2.0;Rua Belo Horizonte;89025-000;;-26.976146;-49.0605507;venda;portal_imoveis
116;Casa à Venda em Blumenau no bairro Tribess;650000.0;3;3;407.0;3;casa;440;Tribess;8503;2691;3.0;Rua Robert Koch;89055-580;;-26.8786037;-49.0551769;venda;portal_imoveis
123;Casa à Venda em Blumenau no bairro Garcia;800000.0;2;3;145.0;3;casa;;Garcia;15911;5336;5.0;Rua Araxa;89020-330;10.6;-26.9298493;-49.0535121;venda;portal_imoveis
124;Casa para Alugar em Blumenau no bairro Ponta Aguda;8000.0;5;7;422.0;4;casa;149;Ponta Aguda;9880;3233;7.0;Rua Assuncao;89050-120;;-26.9138736;-49.0611724;locação;portal_imoveis
125;Apartamento à Venda em Blumenau no bairro Jardim Blumenau;266000.0;2;2;94.07;1;apartamento;50;Jardim Blumenau;2855;1004;1.0;Rua Lauro Mueller;89010-380;;-26.9291614;-49.0632606;venda;portal_imoveis
126;Lote/Terreno à Venda em Blumenau no bairro Vorstadt;1000000.0;0;0;53000.0;0;loteterreno;;Vorstadt;4269;1690;4.0;Rua Juazeiro;89015-535;;-26.9072525;-49.0361775;venda;portal_imoveis
130;Terreno no Bairro da Gloria com 747,70 m2 - Zoneamento ZR1;155000.0;0;0;748.0;0;loteterreno;;Itoupava Norte;15648;5258;5.0;Rua Trinta De Outubro;89052-200;;-26.8943167;-49.0737469;venda;zap_imoveis
132;Lote/Terreno à Venda em Blumenau no bairro Badenfurt;1200000.0;0;0;2500.0;0;loteterreno;485;Badenfurt;8650;2753;12.0;Rua Bernardino Jose De Oliveira;89070-270;13.5;-26.8839224;-49.1332086;venda;portal_imoveis
133;Casa para Alugar em Blumenau no bairro Ponta Aguda;6600.0;3;3;420.0;2;casa;135;Ponta Aguda;9880;3233;7.0;Rua Assuncao;89050-120;;-26.9138736;-49.0611724;locação;portal_imoveis
134;Casa à Venda em Blumenau no bairro Garcia;1650000.0;4;3;1798.56;3;casa;111;Garcia;15911;5336;5.0;Rua Maravilha;89020-120;12.75;-26.9293995;-49.0579974;venda;portal_imoveis
135;Casa à Venda em Blumenau no bairro Velha;695000.0;4;2;813.26;2;casa;452;Velha;15373;5470;6.0;Rua Luiz Bittelbrunn;89040-080;;-26.9207813;-49.1143257;venda;portal_imoveis
136;Casa para Alugar em Blumenau no bairro Passo Manso;2000.0;3;2;600.0;1;casa;915;Passo Manso;6799;2069;7.0;Rua Arthur Mantau;89032-310;;-26.899334;-49.1391033;locação;portal_imoveis
141;TERRENO EM CONDOMÍNIO FECHADO 10 MIN DA VILA GERMÂNICA;159999.0;0;0;236.0;0;loteterreno;;Agua Verde;16186;5526;5.0;Rua Guabiruba;89040-465;;-26.9143672;-49.1272598;venda;zap_imoveis
142;Casa à Venda em Blumenau no bairro Escola Agrícola;899000.0;4;6;442.13;2;casa;224;Escola Agricola;12145;3906;4.0;Rua Luiz Altemburg Senior;89031-300;;-26.8894568;-49.09968;venda;portal_imoveis
143;Lote/Terreno à Venda em Blumenau no bairro Itoupava Central;940000.0;0;0;5903.88;0;loteterreno;1051;Itoupava Central;28164;8715;45.0;Rua Erich Meyer;89069-300;;-26.7843627;-49.0943118;venda;portal_imoveis
144;Apartamento para Alugar em Blumenau no bairro Vila Nova;2450.0;2;1;94.34;2;apartamento;2364;Vila Nova;9962;3884;2.0;Rua Benjamin Constant;89037-502;12.1;-26.8948773;-49.0987164;locação;portal_imoveis
145;Lote/Terreno à Venda em Blumenau no bairro Fortaleza;360000.0;0;0;459.0;0;loteterreno;;Fortaleza;13196;4212;5.0;Rua Babilonia;89053-490;;-26.870607;-49.0763179;venda;portal_imoveis
146;Casa à Venda em Blumenau no bairro Salto do Norte;650000.0;3;3;482.5;5;casa;587;Salto Do Norte;8441;2779;7.0;Rua Trinta De Agosto;89065-210;;-26.8747273;-49.0932393;venda;portal_imoveis
147;TERRENO EM CONDOMÍNIO FECHADO 10 MIN DA VILA GERMÂNICA;159999.0;0;0;236.0;0;loteterreno;;Agua Verde;16186;5526;5.0;Rua Guabiruba;89040-465;;-26.9143672;-49.1272598;venda;zap_imoveis
148;OPORTUNIDADE, terreno bairro Velha Central, livre de enchente.;160000.0;0;0;375.0;0;loteterreno;;Velha Central;18779;6119;7.0;Rua Petunia;89046-450;;-26.9360036;-49.1386715;venda;zap_imoveis
151;Lote para venda.;160000.0;0;0;375.0;0;loteterreno;;Velha Central;18779;6119;7.0;Rua Petunia;89046-450;;-26.9360036;-49.1386715;venda;zap_imoveis
152;Casa à Venda em Blumenau no bairro Água Verde;900000.0;6;5;449.0;4;casa;162;Agua Verde;16186;5526;5.0;Rua Hermann Spernau;89037-506;;-26.9073283;-49.0978223;venda;portal_imoveis
2;Casa à Venda em Blumenau no bairro Itoupava Norte;1500000.0;3;4;325.0;2;casa;136;Itoupava Norte;15648;5258;5.0;Rua Olga Krutzsch;89053-073;15.0;-26.8785986;-49.0794927;venda;portal_imoveis
3;Casa para Alugar em Blumenau no bairro Ponta Aguda;4200.0;5;3;245.65;2;casa;178;Ponta Aguda;9880;3233;7.0;Rua Venezuela;89050-310;;-26.9144216;-49.0642226;locação;portal_imoveis
4;Casa à Venda em Blumenau no bairro Progresso;560000.0;3;2;822.26;1;casa;97;Progresso;15005;4852;7.0;Rua Germano Roeder;89026-250;;-26.9654392;-49.0763192;venda;portal_imoveis
8;Oportunidade! Apartamento 62,16m² Área PV abaixo valor mercado Blumenau/SC - Rafael Matias;111080.0;2;1;62.0;1;apartamento;;Itoupava Central;28164;8715;45.0;Rua Professor Jacob Ineichen;89066-598;;-26.8426432;-49.1113311;venda;zap_imoveis
9;Apartamento para Alugar em Blumenau no bairro Boa Vista;1300.0;2;1;95.22;1;apartamento;1758;Victor Konder;4612;1990;1.0;Rua Carlos Rischbieter;89012-200;16.6;-26.9077427;-49.0732069;locação;portal_imoveis
10;Casa à Venda em Blumenau no bairro Itoupava Norte;950000.0;3;4;259.5;2;casa;21;Itoupava Norte;15648;5258;5.0;Rua Xaverio Eble;89053-460;;-26.8717243;-49.0778422;venda;portal_imoveis
11;Apartamento à Venda em Blumenau no bairro Vila Nova;380000.0;4;2;150.0;1;apartamento;163;Vila Nova;9962;3884;2.0;Rua Theodoro Holtrup;89035-300;13.35;-26.9097018;-49.0825406;venda;portal_imoveis
12;Casa à Venda em Blumenau no bairro Velha;650000.0;4;4;274.77;2;casa;137;Velha;15373;5470;6.0;Rua Bruno Hildebrand;89040-090;;-26.9210608;-49.1148786;venda;portal_imoveis
13;Lote/Terreno à Venda em Blumenau no bairro Vila Nova;2500000.0;0;0;1927.0;0;loteterreno;233;Vila Nova;9962;3884;2.0;Rua Theodoro Holtrup;89035-300;13.35;-26.9097018;-49.0825406;venda;portal_imoveis
14;Excelente Oportunidade!;111080.0;2;1;62.0;1;apartamento;;Itoupava Central;28164;8715;45.0;Rua Professor Jacob Ineichen;89066-598;;-26.8426432;-49.1113311;venda;zap_imoveis
17;|Terreno no Bairro Valparaíso em Blumenau Próximo Nagguchi Apenas R$ 120.000,00 || LA VITA IMÓVEIS|;120000.0;0;0;574.0;0;loteterreno;;Valparaiso;5280;1774;1.0;Rua Antonio Hank;89023-370;;-26.9549408;-49.08355;venda;zap_imoveis
18;Terreno residencial para venda no Bairro Garcia, em Blumenau!;120000.0;0;0;417.0;0;loteterreno;;Garcia;15911;5336;5.0;Rua Evaldo Tensini;89022-220;;-26.9483269;-49.0663053;venda;zap_imoveis
19;Casa à Venda em Blumenau no bairro Itoupava Norte;1100000.0;5;3;431.85;3;casa;385;Itoupava Norte;15648;5258;5.0;Rua Ary Taborda Ribas;89053-520;;-26.8760919;-49.0823522;venda;portal_imoveis
21;Casa à Venda em Blumenau no bairro Vorstadt;1600000.0;3;5;372.5;4;casa;403;Vorstadt;4269;1690;4.0;Alameda Ralf Bruno Gross;89015-430;16.35;-26.8989653;-49.0420927;venda;portal_imoveis
22;Apartamento à Venda em Blumenau no bairro Itoupava Norte;720000.0;2;1;215.98;2;apartamento;;Itoupava Norte;15648;5258;5.0;Rua Sao Valentin;89053-330;13.6;-26.8735371;-49.0835406;venda;portal_imoveis
23;Apartamento à Venda em Blumenau no bairro Itoupava Norte;750000.0;3;1;140.47;2;apartamento;;Itoupava Norte;15648;5258;5.0;Rua Sao Valentin;89053-330;13.6;-26.8735371;-49.0835406;venda;portal_imoveis
24;Terreno localizado em loteamento residencial, contendo área total de 922,00 m², fazendo frente em 21;120000.0;0;0;922.0;0;loteterreno;;Garcia;15911;5336;5.0;Rua Christiano Theiss;89020-410;10.8;-26.9293031;-49.0561492;venda;zap_imoveis
27;Apartamento 1 dormitório Semi-mobiliado a venda Velha Central;120000.0;1;1;28.0;0;apartamento;;Velha Central;18779;6119;7.0;Rua Silvio Santiago;89046-065;;-26.9373519;-49.1409194;venda;zap_imoveis
28;Apartamento 1 dormitório Semi-mobiliado a venda Velha Central;120000.0;1;1;28.0;0;apartamento;;Velha Central;18779;6119;7.0;Rua Silvio Santiago;89046-065;;-26.9373519;-49.1409194;venda;zap_imoveis
29;Apartamento à Venda em Blumenau no bairro Itoupava Norte;750000.0;2;3;215.98;2;apartamento;;Itoupava Norte;15648;5258;5.0;Rua Sao Valentin;89053-330;13.6;-26.8735371;-49.0835406;venda;portal_imoveis
30;Apartamento à Venda em Blumenau no bairro Itoupava Norte;790000.0;3;1;140.47;2;apartamento;;Itoupava Norte;15648;5258;5.0;Rua Sao Valentin;89053-330;13.6;-26.8735371;-49.0835406;venda;portal_imoveis
31;Apartamento à Venda em Blumenau no bairro Itoupava Norte;750000.0;3;1;136.98;2;apartamento;;Itoupava Norte;15648;5258;5.0;Rua Sao Valentin;89053-330;13.6;-26.8735371;-49.0835406;venda;portal_imoveis
32;Apartamento à Venda em Blumenau no bairro Itoupava Norte;1210000.0;3;1;140.47;2;apartamento;;Itoupava Norte;15648;5258;5.0;Rua Sao Valentin;89053-330;13.6;-26.8735371;-49.0835406;venda;portal_imoveis
34;Saia do aluguel usando seu FGTS;120000.0;2;1;44.0;1;apartamento;;Badenfurt;8650;2753;12.0;Rua Heinrich Hemmer;89070-272;18.95;-26.8820467;-49.1224641;venda;zap_imoveis
35;Casa chalé no bairro Progresso;125000.0;3;1;45.0;1;casa;;Progresso;15005;4852;7.0;Rua Hermann Baehr;89027-720;;-27.005345;-49.0668641;venda;zap_imoveis
39;Lote/Terreno à Venda em Blumenau no bairro Escola Agrícola;1200000.0;0;0;2200.0;0;loteterreno;;Do Salto;4558;1445;2.0;Rua Jose Deeke;89031-400;;-26.8911422;-49.1015605;venda;portal_imoveis
40;Casa à Venda em Blumenau no bairro Itoupava Central;1319000.0;5;4;860.0;4;casa;542;Itoupava Central;28164;8715;45.0;Rua Norma Hadlich;89069-040;;-26.8066061;-49.0942941;venda;portal_imoveis
41;Lote/Terreno à Venda em Blumenau no bairro Vila Nova;500000.0;0;0;300.0;0;loteterreno;;Vila Nova;9962;3884;2.0;Rua Jose De Alencar;89035-430;11.4;-26.8984135;-49.0896278;venda;portal_imoveis
42;Casa à Venda em Blumenau no bairro Fortaleza;1400000.0;5;6;650.0;3;casa;141;Fortaleza;13196;4212;5.0;Rua Babilonia;89053-490;;-26.870607;-49.0763179;venda;portal_imoveis
43;Casa à Venda em Blumenau no bairro Itoupava Central;2200000.0;4;4;700.0;2;casa;389;Itoupava Central;28164;8715;45.0;Rua Flamboyant;89062-253;;-26.8286471;-49.0868367;venda;portal_imoveis
44;Vendo Apartamento no Res. Hamburgo no Badenfurt em Blumenau SC;132000.0;2;1;51.0;1;apartamento;;Salto Weissbach;5213;1556;4.0;Rua Bahia;89032-525;14.8;-26.8867411;-49.0937241;venda;zap_imoveis
46;Excelente Oportunidade!;133900.0;2;1;51.0;1;apartamento;;Velha;15373;5470;6.0;Rua Governador Jorge Lacerda;89045-000;;-26.924502;-49.1025403;venda;zap_imoveis
47;Oportunidade! Apartamento 51,02m² Área PV abaixo valor mercado Blumenau/SC - Rafael Matias;133900.0;2;1;51.0;1;apartamento;;Velha;15373;5470;6.0;Rua Governador Jorge Lacerda;89045-000;;-26.924502;-49.1025403;venda;zap_imoveis
49;Casa à Venda em Blumenau no bairro Garcia;780000.0;4;2;276.76;2;casa;394;Garcia;15911;5336;5.0;Rua Engenheiro Odebrecht;89021-200;13.6;-26.9408836;-49.0584558;venda;portal_imoveis
50;Apartamento à Venda em Blumenau no bairro Itoupava Central;280000.0;2;1;99.0;1;apartamento;4500;Itoupava Central;28164;8715;45.0;Rua Gustavo Zimmermann;89063-003;18.3;-26.8036671;-49.0875859;venda;portal_imoveis
51;Casa à Venda em Blumenau no bairro Fortaleza;695000.0;2;3;453.75;3;casa;318;Fortaleza;13196;4212;5.0;Rua Miguel Servet;89056-300;16.2;-26.8754639;-49.0736358;venda;portal_imoveis
52;Casa à Venda em Blumenau no bairro Salto;750000.0;4;4;783.0;3;casa;185;Salto Do Norte;8441;2779;7.0;Rua Osni Jensen;89065-280;12.5;-26.8778205;-49.099843;venda;portal_imoveis
53;Apartamento à Venda em Blumenau no bairro Centro;600617.0;1;1;73.0;1;apartamento;148;Centro;5004;1622;2.0;Rua Namy Deeke;89010-130;13.95;-26.917538;-49.0677202;venda;portal_imoveis
55;Lotes residenciais à venda no bairro Itoupava Central – Blumenau/SC;135000.0;0;0;333.0;0;loteterreno;;Itoupava Central;28164;8715;45.0;Rua Ricardo Georg;89069-100;;-26.7968587;-49.0994516;venda;zap_imoveis
59;Apartamento à Venda em Blumenau no bairro Centro;815650.0;1;2;88.56;1;apartamento;148;Centro;5004;1622;2.0;Rua Namy Deeke;89010-130;13.95;-26.917538;-49.0677202;venda;portal_imoveis
60;Casa à Venda em Blumenau no bairro Itoupava Norte;1100000.0;4;4;502.0;4;casa;264;Itoupava Norte;15648;5258;5.0;Rua Almirante Armin Zimmermann;89053-500;17.95;-26.8776068;-49.0849655;venda;portal_imoveis
62;Lote/Terreno à Venda em Blumenau no bairro Ponta Aguda;290000.0;0;0;375.0;0;loteterreno;3065;Ponta Aguda;9880;3233;7.0;Rua Silvano Candido Da Silva Senior;89050-280;;-26.9004052;-49.0464149;venda;portal_imoveis
63;Sobrado à Venda em Blumenau no bairro Escola Agrícola;1425000.0;3;3;683.0;2;sobrado;181;Do Salto;4558;1445;2.0;Rua Roland Riediger;89031-031;;-26.8923183;-49.0936116;venda;portal_imoveis
65;Lindo terreno pronto para construir na Badenfurt próximo a Zeus do Brasil;139000.0;0;0;420.0;0;loteterreno;;Badenfurt;8650;2753;12.0;Rua Gregorio Link;89072-050;;-26.878568;-49.1631041;venda;zap_imoveis
66;Terreno localizado no bairro Fortaleza!;139900.0;0;0;340.0;0;loteterreno;;Itoupava Norte;15648;5258;5.0;Rua Sao Cristovao;89053-590;10.05;-26.8707056;-49.0879875;venda;zap_imoveis
67;Lote/Terreno para venda possui 450 metros quadrados em Progresso - Blumenau - SC;140000.0;0;0;450.0;0;loteterreno;;Progresso;15005;4852;7.0;Rua Bruno Schreiber;89027-400;;-26.9936705;-49.0998762;venda;zap_imoveis
70;Casa à Venda em Blumenau no bairro Ponta Aguda;850000.0;3;3;240.0;2;casa;09;Ponta Aguda;9880;3233;7.0;Rua Nestor Seara Heusi;89050-200;;-26.9078156;-49.047159;venda;portal_imoveis
71;Casa à Venda em Blumenau no bairro Testo Salto;790000.0;3;3;516.33;2;casa;78;Testo Salto;7065;2135;15.0;Rua Bruno Morell;89074-580;;-26.8570593;-49.1384688;venda;portal_imoveis
73;Casa à Venda em Blumenau no bairro Tribess;530000.0;3;1;107.0;2;casa;;Tribess;8503;2691;3.0;Rua Hermann Tribess;89055-400;;-26.8764169;-49.0587461;venda;portal_imoveis
74;Possibilidade de 100 % financiado!;140000.0;2;1;188.0;0;casa;;Itoupavazinha;17560;5358;12.0;Rua Radialista Rodolfo Sestrem;89066-383;;-26.8514283;-49.1082135;venda;zap_imoveis
76;Terreno no bairro Itoupavazinha no loteamento Aquárius Lot.40, com área total de 438m² Zoneamento Z;140000.0;0;0;438.0;0;loteterreno;;Itoupavazinha;17560;5358;12.0;Rua Joao Cardoso;89070-521;;-26.8622493;-49.1238427;venda;zap_imoveis
77;Terreno Testo Salto;140000.0;0;0;360.0;0;loteterreno;;Testo Salto;7065;2135;15.0;Rua Christiano Karsten;89074-400;;-26.8530331;-49.1434161;venda;zap_imoveis
79;Casa à Venda em Blumenau no bairro Tribess;490000.0;3;1;103.0;2;casa;;Tribess;8503;2691;3.0;Rua Hermann Tribess;89055-400;;-26.8764169;-49.0587461;venda;portal_imoveis
80;Casa à Venda em Blumenau no bairro Tribess;490000.0;3;1;103.0;2;casa;2200;Tribess;8503;2691;3.0;Rua Hermann Tribess;89055-400;;-26.8764169;-49.0587461;venda;portal_imoveis
81;Casa à Venda em Blumenau no bairro Tribess;490000.0;3;1;103.0;2;casa;;Tribess;8503;2691;3.0;Rua Hermann Tribess;89055-400;;-26.8764169;-49.0587461;venda;portal_imoveis
82;Apartamento para Alugar em Blumenau no bairro Vila Nova;1900.0;2;1;110.48;1;apartamento;2348;Vila Nova;9962;3884;2.0;Rua Benjamin Constant;89037-502;12.1;-26.8948773;-49.0987164;locação;portal_imoveis
83;Casa à Venda em Blumenau no bairro Progresso;380000.0;3;2;455.0;2;casa;67;Progresso;15005;4852;7.0;Rua Erico Verissimo;89026-275;;-26.9685845;-49.0749231;venda;portal_imoveis
84;LINDO APARTAMENTO SEMIMOBILIADO NO BAIRRO PROGRESSO.;145000.0;2;1;41.0;1;apartamento;;Progresso;15005;4852;7.0;Rua Santa Maria;89027-200;;-26.983649;-49.0781831;venda;zap_imoveis
85;Terreno no Bairro Ponta Aguda, bem localizado, com 534,80m².;145000.0;0;0;534.0;0;loteterreno;;Ponta Aguda;9880;3233;7.0;Rua August Friedrich Wilhelm Becker;89051-090;;-26.906535;-49.0653098;venda;zap_imoveis
87;Terreno no Bairro Testo Salto - Rua sem saída;149000.0;0;0;299.0;0;loteterreno;;Testo Salto;7065;2135;15.0;Rua Bertoldo Joao Correa;89074-470;;-26.8553029;-49.1456477;venda;zap_imoveis
88;Terreno com 700,17 metros quadrados, apto para construir, possui pequeno declive.;149000.0;0;0;700.0;0;loteterreno;;Testo Salto;7065;2135;15.0;Rua Mina Nova;89074-350;;-26.8611092;-49.1415386;venda;zap_imoveis
89;Casa à Venda em Blumenau no bairro Testo Salto;370000.0;2;1;68.74;1;casa;2691;Testo Salto;7065;2135;15.0;Rua Werner Duwe;89074-178;13.55;-26.8504419;-49.1519382;venda;portal_imoveis
90;Casa à Venda em Blumenau no bairro Itoupava Norte;280000.0;2;1;100.0;1;casa;88;Itoupava Norte;15648;5258;5.0;Rua Doutor Edgar Barreto;89053-540;;-26.8741176;-49.081574;venda;portal_imoveis
91;Casa à Venda em Blumenau no bairro Progresso;580000.0;3;2;960.0;2;casa;1284;Progresso;15005;4852;7.0;Rua Avelino Pering;89027-440;;-26.9852457;-49.0844607;venda;portal_imoveis
92;Casa à Venda em Blumenau no bairro Progresso;420000.0;3;2;825.0;2;casa;1274;Progresso;15005;4852;7.0;Rua Avelino Pering;89027-440;;-26.9852457;-49.0844607;venda;portal_imoveis
93;Apartamento à Venda em Blumenau no bairro Itoupavazinha;280000.0;3;1;96.0;1;apartamento;90;Itoupavazinha;17560;5358;12.0;Rua Jose Stein;89066-430;;-26.8530595;-49.1171885;venda;portal_imoveis
94;LOFT a venda semimobiliado no bairro da Velha próximo ao Tomio.;149999.0;1;1;30.0;1;kitnet;;Itoupava Seca;4464;1616;3.0;Rua Engenheiro Paul Werner;89030-101;20.7;-26.8962619;-49.0824227;venda;zap_imoveis
95;Terreno na rua Arapongas na Ponta Aguda;150000.0;0;0;420.0;0;loteterreno;;Ponta Aguda;9880;3233;7.0;Rua Arapongas;89050-195;;-26.9096309;-49.0512373;venda;zap_imoveis
96;Blumenau - Terreno Padrão - Itoupava Central;150000.0;1;1;345.0;0;loteterreno;;Itoupava Central;28164;8715;45.0;Rua Ricardo Georg;89069-100;;-26.7968587;-49.0994516;venda;zap_imoveis
100;Apartamento à Venda em Blumenau no bairro Salto do Norte;255423.0;2;1;55.48;1;apartamento;832;Salto Do Norte;8441;2779;7.0;Rua Pomerode;89065-301;14.75;-26.8785312;-49.1012611;venda;portal_imoveis
101;Apartamento à Venda em Blumenau no bairro Salto do Norte;269718.0;2;2;63.79;1;apartamento;832;Salto Do Norte;8441;2779;7.0;Rua Pomerode;89065-301;14.75;-26.8785312;-49.1012611;venda;portal_imoveis
103;Apartamento à Venda em Blumenau no bairro Victor Konder;860000.0;3;4;230.0;3;apartamento;130;Victor Konder;4612;1990;1.0;Rua Victor Konder;89012-170;10.3;-26.9113888;-49.0755186;venda;portal_imoveis
104;Conheça agora um excelente terreno na Itoupava Central, uma ótima opção de investimento a venda aqui;150000.0;0;0;480.0;0;loteterreno;;Agua Verde;16186;5526;5.0;Rua Rudolf Roedel;89037-405;;-26.9015148;-49.1122971;venda;zap_imoveis
109;Lote/Terreno à Venda em Blumenau no bairro Água Verde;1500000.0;0;0;1028.0;0;loteterreno;143;Agua Verde;16186;5526;5.0;Rua Rodolfo Weckerle;89037-508;;-26.9075879;-49.0998925;venda;portal_imoveis
111;Casa para Alugar em Blumenau no bairro Itoupava Norte;1200.0;2;1;60.0;0;casa;191;Itoupava Norte;15648;5258;5.0;Rua Vinte E Cinco De Novembro;89053-110;;-26.8777978;-49.0760725;locação;portal_imoveis
112;Casa à Venda em Blumenau no bairro Escola Agrícola;750000.0;3;3;168.22;2;casa;;Escola Agricola;12145;3906;4.0;Rua Francisco Da Cunha Silveira;89037-695;;-26.8944032;-49.0938482;venda;portal_imoveis
113;Apartamento à Venda em Blumenau no bairro Itoupava Seca;475000.0;2;2;102.0;1;apartamento;365;Itoupava Seca;4464;1616;3.0;Rua Teresopolis;89030-110;14.75;-26.904098;-49.0807824;venda;portal_imoveis
114;Lote/Terreno para Alugar em Blumenau no bairro Fortaleza;1500.0;0;0;311.5;0;loteterreno;;Tribess;8503;2691;3.0;Rua Francisco Vahldieck;89057-700;18.35;-26.8835204;-49.0721619;locação;portal_imoveis
115;Lote/Terreno à Venda em Blumenau no bairro Da Glória;220000.0;1;1;5192.5;1;loteterreno;805;Da Gloria;6228;2096;2.0;Rua Belo Horizonte;89025-000;;-26.976146;-49.0605507;venda;portal_imoveis
116;Casa à Venda em Blumenau no bairro Tribess;650000.0;3;3;407.0;3;casa;440;Tribess;8503;2691;3.0;Rua Robert Koch;89055-580;;-26.8786037;-49.0551769;venda;portal_imoveis
123;Casa à Venda em Blumenau no bairro Garcia;800000.0;2;3;145.0;3;casa;;Garcia;15911;5336;5.0;Rua Araxa;89020-330;10.6;-26.9298493;-49.0535121;venda;portal_imoveis
124;Casa para Alugar em Blumenau no bairro Ponta Aguda;8000.0;5;7;422.0;4;casa;149;Ponta Aguda;9880;3233;7.0;Rua Assuncao;89050-120;;-26.9138736;-49.0611724;locação;portal_imoveis
125;Apartamento à Venda em Blumenau no bairro Jardim Blumenau;266000.0;2;2;94.07;1;apartamento;50;Jardim Blumenau;2855;1004;1.0;Rua Lauro Mueller;89010-380;;-26.9291614;-49.0632606;venda;portal_imoveis
126;Lote/Terreno à Venda em Blumenau no bairro Vorstadt;1000000.0;0;0;53000.0;0;loteterreno;;Vorstadt;4269;1690;4.0;Rua Juazeiro;89015-535;;-26.9072525;-49.0361775;venda;portal_imoveis
130;Terreno no Bairro da Gloria com 747,70 m2 - Zoneamento ZR1;155000.0;0;0;748.0;0;loteterreno;;Itoupava Norte;15648;5258;5.0;Rua Trinta De Outubro;89052-200;;-26.8943167;-49.0737469;venda;zap_imoveis
132;Lote/Terreno à Venda em Blumenau no bairro Badenfurt;1200000.0;0;0;2500.0;0;loteterreno;485;Badenfurt;8650;2753;12.0;Rua Bernardino Jose De Oliveira;89070-270;13.5;-26.8839224;-49.1332086;venda;portal_imoveis
133;Casa para Alugar em Blumenau no bairro Ponta Aguda;6600.0;3;3;420.0;2;casa;135;Ponta Aguda;9880;3233;7.0;Rua Assuncao;89050-120;;-26.9138736;-49.0611724;locação;portal_imoveis
134;Casa à Venda em Blumenau no bairro Garcia;1650000.0;4;3;1798.56;3;casa;111;Garcia;15911;5336;5.0;Rua Maravilha;89020-120;12.75;-26.9293995;-49.0579974;venda;portal_imoveis
135;Casa à Venda em Blumenau no bairro Velha;695000.0;4;2;813.26;2;casa;452;Velha;15373;5470;6.0;Rua Luiz Bittelbrunn;89040-080;;-26.9207813;-49.1143257;venda;portal_imoveis
136;Casa para Alugar em Blumenau no bairro Passo Manso;2000.0;3;2;600.0;1;casa;915;Passo Manso;6799;2069;7.0;Rua Arthur Mantau;89032-310;;-26.899334;-49.1391033;locação;portal_imoveis
141;TERRENO EM CONDOMÍNIO FECHADO 10 MIN DA VILA GERMÂNICA;159999.0;0;0;236.0;0;loteterreno;;Agua Verde;16186;5526;5.0;Rua Guabiruba;89040-465;;-26.9143672;-49.1272598;venda;zap_imoveis
142;Casa à Venda em Blumenau no bairro Escola Agrícola;899000.0;4;6;442.13;2;casa;224;Escola Agricola;12145;3906;4.0;Rua Luiz Altemburg Senior;89031-300;;-26.8894568;-49.09968;venda;portal_imoveis
143;Lote/Terreno à Venda em Blumenau no bairro Itoupava Central;940000.0;0;0;5903.88;0;loteterreno;1051;Itoupava Central;28164;8715;45.0;Rua Erich Meyer;89069-300;;-26.7843627;-49.0943118;venda;portal_imoveis
144;Apartamento para Alugar em Blumenau no bairro Vila Nova;2450.0;2;1;94.34;2;apartamento;2364;Vila Nova;9962;3884;2.0;Rua Benjamin Constant;89037-502;12.1;-26.8948773;-49.0987164;locação;portal_imoveis
145;Lote/Terreno à Venda em Blumenau no bairro Fortaleza;360000.0;0;0;459.0;0;loteterreno;;Fortaleza;13196;4212;5.0;Rua Babilonia;89053-490;;-26.870607;-49.0763179;venda;portal_imoveis
146;Casa à Venda em Blumenau no bairro Salto do Norte;650000.0;3;3;482.5;5;casa;587;Salto Do Norte;8441;2779;7.0;Rua Trinta De Agosto;89065-210;;-26.8747273;-49.0932393;venda;portal_imoveis
147;TERRENO EM CONDOMÍNIO FECHADO 10 MIN DA VILA GERMÂNICA;159999.0;0;0;236.0;0;loteterreno;;Agua Verde;16186;5526;5.0;Rua Guabiruba;89040-465;;-26.9143672;-49.1272598;venda;zap_imoveis
148;OPORTUNIDADE, terreno bairro Velha Central, livre de enchente.;160000.0;0;0;375.0;0;loteterreno;;Velha Central;18779;6119;7.0;Rua Petunia;89046-450;;-26.9360036;-49.1386715;venda;zap_imoveis
151;Lote para venda.;160000.0;0;0;375.0;0;loteterreno;;Velha Central;18779;6119;7.0;Rua Petunia;89046-450;;-26.9360036;-49.1386715;venda;zap_imoveis
152;Casa à Venda em Blumenau no bairro Água Verde;900000.0;6;5;449.0;4;casa;162;Agua Verde;16186;5526;5.0;Rua Hermann Spernau;89037-506;;-26.9073283;-49.0978223;venda;portal_imoveis
153;Lote/Terreno à Venda em Blumenau no bairro Fortaleza;780000.0;0;0;1268.13;0;loteterreno;1890;Itoupava Norte;15648;5258;5.0;Rua 25 De Agosto;89056-150;17.6;-26.8761314;-49.0805143;venda;portal_imoveis
154;Casa para Alugar em Blumenau no bairro Garcia;7000.0;4;2;307.0;3;casa;98;Garcia;15911;5336;5.0;Rua Mancio Costa;89020-030;10.3;-26.9284339;-49.0580864;locação;portal_imoveis
156;Casa à Venda em Blumenau no bairro Fortaleza;530000.0;3;3;450.0;3;casa;98;Fortaleza;13196;4212;5.0;Rua Conde De Araruana;89057-233;;-26.8644397;-49.0620369;venda;portal_imoveis
157;Excelente terreno, no Bairro Testo Salto!;160000.0;0;0;370.0;0;loteterreno;;Testo Salto;7065;2135;15.0;Rua Campo Mourao;89074-510;;-26.8548219;-49.1393169;venda;zap_imoveis
162;Casa à Venda em Blumenau no bairro Velha Central;735000.0;3;3;185.47;2;casa;35;Velha Central;18779;6119;7.0;Rua Wally Vogelbacher;89045-460;;-26.9335275;-49.1253947;venda;portal_imoveis
163;Casa à Venda em Blumenau no bairro Ribeirão Fresco;580000.0;10;10;603.5;0;casa;659;Ribeirao Fresco;1587;513;1.0;Rua Pastor Oswald Hesse;89015-100;;-26.9279792;-49.0390287;venda;portal_imoveis
168;Apartamento Bairro Progresso, pronto para morar.;160000.0;2;1;52.0;1;apartamento;;Progresso;15005;4852;7.0;Rua Bruno Schreiber;89027-400;;-26.9936705;-49.0998762;venda;zap_imoveis
169;Apartamento com 2 dormitórios, 1 vaga de garagem.;160000.0;2;1;44.0;1;apartamento;;Badenfurt;8650;2753;12.0;Rua Heinrich Hemmer;89070-272;18.95;-26.8820467;-49.1224641;venda;zap_imoveis
172;Sobrado à Venda em Blumenau no bairro Garcia;800000.0;2;3;145.15;3;sobrado;;Garcia;15911;5336;5.0;Rua Araxa;89020-330;10.6;-26.9298493;-49.0535121;venda;portal_imoveis
174;Apartamento à Venda em Blumenau no bairro Itoupavazinha;375000.0;2;1;98.32;2;apartamento;572;Salto Do Norte;8441;2779;7.0;Rua Max Maul;89065-640;17.65;-26.8632931;-49.1159143;venda;portal_imoveis
175;Lote/Terreno à Venda em Blumenau no bairro Salto Weissbach;350000.0;0;0;674.62;0;loteterreno;;Salto Weissbach;5213;1556;4.0;Rua Guilherme Probst;89032-250;;-26.9045483;-49.1358349;venda;portal_imoveis
176;Lote/Terreno à Venda em Blumenau no bairro Salto Weissbach;350000.0;0;0;614.51;0;loteterreno;;Salto Weissbach;5213;1556;4.0;Rua Guilherme Probst;89032-250;;-26.9045483;-49.1358349;venda;portal_imoveis
180;Terreno no bairro da Velha;160000.0;0;0;0.0;0;loteterreno;;Velha Central;18779;6119;7.0;Rua Petunia;89046-450;;-26.9360036;-49.1386715;venda;zap_imoveis
181;Apartamento com 02 dormitórios e 01 vaga de garagem, no bairro Velha Central em Blumenau!;160000.0;2;1;42.0;1;apartamento;;Velha Central;18779;6119;7.0;Rua Teresa Marta Mathes;89046-024;;-26.9355314;-49.1300081;venda;zap_imoveis
182;Casa à Venda em Blumenau no bairro Itoupava Norte;690000.0;4;2;172.37;2;casa;220;Itoupava Norte;15648;5258;5.0;Rua Sideropolis;89053-230;13.4;-26.8788751;-49.0827229;venda;portal_imoveis
183;Casa à Venda em Blumenau no bairro Itoupava Norte;860000.0;3;5;240.0;3;casa;20;Itoupava Norte;15648;5258;5.0;Rua Pedro Pereira;89053-516;;-26.8776068;-49.0849655;venda;portal_imoveis
184;Apartamento à Venda em Blumenau no bairro Água Verde;450000.0;2;3;177.55;2;apartamento;142;Agua Verde;16186;5526;5.0;Rua Tenente Silvio Delmar Hollenbach;89036-655;;-26.9145072;-49.1005226;venda;portal_imoveis
185;Lote/Terreno à Venda em Blumenau no bairro Itoupava Norte;350000.0;0;0;599.43;0;loteterreno;112;Itoupava Norte;15648;5258;5.0;Rua Berlim;89052-630;;-26.8842776;-49.0791035;venda;portal_imoveis
186;Apartamento à Venda em Blumenau no bairro Garcia;310000.0;2;2;79.7;1;apartamento;240;Garcia;15911;5336;5.0;Rua Ararangua;89020-302;14.05;-26.938174;-49.0538273;venda;portal_imoveis
187;Lote a venda em Blumenau;160000.0;0;0;263.0;0;loteterreno;;Agua Verde;16186;5526;5.0;Rua Guabiruba;89040-465;;-26.9143672;-49.1272598;venda;zap_imoveis
188;Terreno a Venda no bairro Fortaleza;160000.0;0;0;1148.0;0;loteterreno;;Fortaleza;13196;4212;5.0;Rua Heinrich Piske;89057-230;;-26.8624609;-49.0583676;venda;zap_imoveis
190;Apartamento à Venda em Blumenau no bairro Victor Konder;795000.0;3;1;189.72;2;apartamento;283;Victor Konder;4612;1990;1.0;Rua Timbo;89012-180;11.4;-26.9092948;-49.0756817;venda;portal_imoveis
191;Casa à Venda em Blumenau no bairro Itoupava Norte;650000.0;3;2;610.0;2;casa;47;Itoupava Norte;15648;5258;5.0;Rua Vereador Romario Da Conceicao Badia;89053-600;13.45;-26.8741891;-49.0869085;venda;portal_imoveis
192;Apartamento à Venda em Blumenau no bairro Centro;495000.0;3;2;212.94;2;apartamento;44;Centro;5004;1622;2.0;Rua Sao Joaquim;89012-420;12.55;-26.9123984;-49.0758331;venda;portal_imoveis
194;Casa à Venda em Blumenau no bairro Escola Agrícola;490000.0;2;2;124.0;1;casa;19;Escola Agricola;12145;3906;4.0;Rua Ernesto Rhenius;89031-572;;-26.8898958;-49.1091898;venda;portal_imoveis
197;Terreno no Bairro Fortaleza com 1.300,58 m², com 18,50m de frente, em ótima localização.;165000.0;0;0;1300.0;0;loteterreno;;Tribess;8503;2691;3.0;Rua Francisco Vahldieck;89057-700;18.35;-26.8835204;-49.0721619;venda;zap_imoveis
200;Sobrado à Venda em Blumenau no bairro Boa Vista;340000.0;2;2;99.0;1;sobrado;125;Boa Vista;1748;589;1.0;Rua Guido Kaestner Senior;89012-360;13.8;-26.8999524;-49.0642471;venda;portal_imoveis
201;Apartamento à Venda em Blumenau no bairro Escola Agrícola;316837.0;2;1;80.0;1;apartamento;474;Escola Agricola;12145;3906;4.0;Rua Norberto Seara Heusi;89037-800;;-26.8920906;-49.0985074;venda;portal_imoveis
211;Casa à Venda em Blumenau no bairro Passo Manso;3900000.0;4;7;8322.82;6;casa;128;Passo Manso;6799;2069;7.0;Rua Oswald Heinrich Kluge;89032-440;;-26.9055053;-49.1493956;venda;portal_imoveis
213;Casa para Alugar em Blumenau no bairro Itoupavazinha;10000.0;2;1;357.7;0;casa;3587;Itoupavazinha;17560;5358;12.0;Rua Frederico Jensen;89066-510;15.05;-26.8605872;-49.0990946;locação;portal_imoveis
216;>>>> Lançamento :: terrenos Vila do Poeta;170000.0;0;0;0.0;0;loteterreno;;Itoupava Central;28164;8715;45.0;Rua Professor Jacob Ineichen;89066-598;;-26.8426432;-49.1113311;venda;zap_imoveis
218;Terreno na Itoupava Norte, 400,00 M² de área Total sendo 20 frente X 20 Laterais.;170000.0;0;0;400.0;0;loteterreno;;Fortaleza;13196;4212;5.0;Rua Congonhas;89056-158;;-26.873364;-49.0796694;venda;zap_imoveis
220;Lote/Terreno à Venda em Blumenau no bairro Testo Salto;149000.0;0;0;700.17;0;loteterreno;28;Testo Salto;7065;2135;15.0;Rua Mina Nova;89074-350;;-26.8611092;-49.1415386;venda;portal_imoveis
221;Apartamento para Alugar em Blumenau no bairro Victor Konder;2400.0;2;2;92.78;2;apartamento;143;Victor Konder;4612;1990;1.0;Rua Max Hering;89012-510;13.85;-26.9073376;-49.0785149;locação;portal_imoveis
222;Casa à Venda em Blumenau no bairro Itoupava Seca;1530000.0;3;3;175.37;2;casa;31;Itoupava Seca;4464;1616;3.0;Rua Victorino De Paula Ramos;89030-500;;-26.8790911;-49.093768;venda;portal_imoveis
223;Casa à Venda em Blumenau no bairro Itoupava Central;790000.0;3;4;434.63;2;casa;364;Itoupava Central;28164;8715;45.0;Rua Norma Hadlich;89069-040;;-26.8066061;-49.0942941;venda;portal_imoveis
225;Loteamento com infra-estrutura completa, com ruas asfaltadas e documentação pronta, na Itoupava Cent;170000.0;0;0;252.0;0;loteterreno;;Itoupava Central;28164;8715;45.0;Rua Professor Jacob Ineichen;89066-598;;-26.8426432;-49.1113311;venda;zap_imoveis
227;Ótima oportunidade para construtor, terreno no bairro da Itoupava Central, já terraplanado para cons;170000.0;0;0;0.0;0;loteterreno;;Itoupava Central;28164;8715;45.0;Rua Edmundo Zuelow;89068-242;;-26.8079991;-49.0995553;venda;zap_imoveis
229;Casa ampla com 4 quartos, no bairro da velha em Blumenau!! À apenas 4,8 km da Vila germânica!;170000.0;4;2;100.0;0;casa;;Velha;15373;5470;6.0;Rua Irma Aluysianis;89036-800;;-26.9283427;-49.1030476;venda;zap_imoveis
231;Lote/Terreno à Venda em Blumenau no bairro Itoupava Norte;250000.0;0;0;1285.5;0;loteterreno;34;Itoupava Norte;15648;5258;5.0;Rua Das Antilhas;89053-430;;-26.8732914;-49.0787266;venda;portal_imoveis
232;Lote/Terreno à Venda em Blumenau no bairro Ponta Aguda;850000.0;0;0;8360.0;0;loteterreno;00;Ponta Aguda;9880;3233;7.0;Rua Rudolfo Augusto Kucker;89050-070;15.05;-26.9132753;-49.0659486;venda;portal_imoveis
233;Lote/Terreno à Venda em Blumenau no bairro Itoupava Norte;170000.0;0;0;400.0;0;loteterreno;;Fortaleza;13196;4212;5.0;Rua Congonhas;89056-158;;-26.873364;-49.0796694;venda;portal_imoveis
234;Lote/Terreno à Venda em Blumenau no bairro Da Glória;155000.0;0;0;747.7;0;loteterreno;;Da Gloria;6228;2096;2.0;Rua Marilia;89025-010;;-26.9648963;-49.0652391;venda;portal_imoveis
235;Apartamento na Rua Hermann Tribess disponível para venda.;170000.0;2;1;42.0;1;apartamento;;Tribess;8503;2691;3.0;Rua Hermann Tribess;89055-400;;-26.8764169;-49.0587461;venda;zap_imoveis
236;Terreno com 361m2 no bairro itoupava central;170000.0;0;0;361.0;0;loteterreno;;Itoupava Norte;15648;5258;5.0;Rua Onze De Junho;89052-290;;-26.8879746;-49.0808361;venda;zap_imoveis
240;Lote/Terreno à Venda em Blumenau no bairro Itoupava Central;299000.0;0;0;397.0;0;loteterreno;835;Itoupavazinha;17560;5358;12.0;Rua Guilherme Scharf;89066-032;11.8;-26.8510262;-49.0871018;venda;portal_imoveis
241;Casa à Venda em Blumenau no bairro Escola Agrícola;600000.0;3;3;140.0;2;casa;101;Escola Agricola;12145;3906;4.0;Rua Denise Michel;89037-652;;-26.8975482;-49.0948769;venda;portal_imoveis
242;Apartamento à Venda em Blumenau no bairro Vila Nova;542563.0;2;2;85.4;1;apartamento;54;Escola Agricola;12145;3906;4.0;Rua Sao Manoel;89037-625;;-26.9035809;-49.0971173;venda;portal_imoveis
244;Casa à Venda em Blumenau no bairro Itoupava Central;295000.0;2;3;77.0;2;casa;;Itoupava Central;28164;8715;45.0;Rua Linda Rudiger;89068-302;;-26.8268499;-49.1073468;venda;portal_imoveis
245;Ótimo terreno no Bairro Escola Agrícola!;175000.0;0;0;450.0;0;loteterreno;;Escola Agricola;12145;3906;4.0;Rua Saturno;89037-522;;-26.9074186;-49.102672;venda;zap_imoveis
248;Amplo terreno em condomínio fechado no bairro Água Verde!;175000.0;0;0;0.0;0;loteterreno;;Itoupava Norte;15648;5258;5.0;Rua Sao Cristovao;89053-590;10.05;-26.8707056;-49.0879875;venda;zap_imoveis
249;Loteamento novo de alto Padrão;175000.0;0;0;258.0;0;loteterreno;;Itoupavazinha;17560;5358;12.0;Rua Luiz Maske;89066-650;;-26.8399033;-49.1205342;venda;zap_imoveis
250;Lote/Terreno à Venda em Blumenau no bairro Badenfurt;290000.0;0;0;600.0;0;loteterreno;;Badenfurt;8650;2753;12.0;Rua Arnold Hemmer;89072-200;17.6;-26.8816738;-49.1662501;venda;portal_imoveis
251;Apartamento à Venda em Blumenau no bairro Salto do Norte;265000.0;2;2;71.59;1;apartamento;480;Salto Do Norte;8441;2779;7.0;Rua Max Maul;89065-640;17.65;-26.8632931;-49.1159143;venda;portal_imoveis
252;Sobrado à Venda em Blumenau no bairro Tribess;998000.0;3;4;194.9;2;sobrado;65;Tribess;8503;2691;3.0;Rua Mario Marcelo Werplotz;89057-272;;-26.8673565;-49.0516218;venda;portal_imoveis
253;Sobrado à Venda em Blumenau no bairro Tribess;830000.0;3;4;144.26;2;sobrado;11;Tribess;8503;2691;3.0;Rua Evelina Dos Santos Iaginski;89057-275;;-26.8678233;-49.0510565;venda;portal_imoveis
255;Terreno à venda, 399 m² por R$ 175.000,00 - Itoupava Central - Blumenau/SC;175000.0;0;0;400.0;0;loteterreno;;Itoupava Central;28164;8715;45.0;Rua Haroldo Hackbarth;89069-235;;-26.7908189;-49.096335;venda;zap_imoveis
256;Amplo terreno em condomínio fechado no bairro Água Verde!;175000.0;0;0;0.0;0;loteterreno;;Itoupava Norte;15648;5258;5.0;Rua Sao Cristovao;89053-590;10.05;-26.8707056;-49.0879875;venda;zap_imoveis
257;Apartamento, em ótima localização, com 2 dormitórios, sala, cozinha, lavação, vaga de estacionamento;175000.0;2;1;50.0;1;apartamento;;Velha;15373;5470;6.0;Rua Angelina Cordeiro Herkenhoff;89041-130;;-26.9147105;-49.1082595;venda;zap_imoveis
260;Casa à Venda em Blumenau no bairro Água Verde;600000.0;3;2;576.0;3;casa;132;Agua Verde;16186;5526;5.0;Rua Waldir Medeiros;89042-340;;-26.914426;-49.1367485;venda;portal_imoveis
261;Sobrado à Venda em Blumenau no bairro Fortaleza Alta;990000.0;3;2;300.0;2;sobrado;211;Fortaleza Alta;4507;1398;5.0;Rua San Marino;89058-402;;-26.8498204;-49.0512244;venda;portal_imoveis
262;Apartamento para Alugar em Blumenau no bairro Passo Manso;1500.0;2;1;91.57;1;apartamento;1845;Passo Manso;6799;2069;7.0;Rua Bernardo Reiter;89046-200;;-26.9278486;-49.1432775;locação;portal_imoveis
263;Apartamento para Alugar em Blumenau no bairro Itoupavazinha;1300.0;2;1;78.36;1;apartamento;126;Itoupavazinha;17560;5358;12.0;Rua Engenheiro Maicon Siemenskoski;89066-802;15.7;-26.862198;-49.1166045;locação;portal_imoveis
264;Lote/Terreno à Venda em Blumenau no bairro Garcia;450000.0;0;0;540.0;0;loteterreno;;Garcia;15911;5336;5.0;Rua Prefeito Frederico Busch Junior;89020-400;13.1;-26.9288714;-49.0563345;venda;portal_imoveis
266;Conheça agora todos detalhes desta excelente opção de investimento a venda aqui na Dinâmica Sul, afi;178000.0;0;0;0.0;0;loteterreno;;Itoupava Central;28164;8715;45.0;Rua Ricardo Belz;89069-140;;-26.7922569;-49.1014905;venda;zap_imoveis
269;Terreno em Blumenau;179000.0;0;0;0.0;0;loteterreno;;Badenfurt;8650;2753;12.0;Rua Arnold Hemmer;89072-200;17.6;-26.8816738;-49.1662501;venda;zap_imoveis
270;Casa à Venda em Blumenau no bairro Testo Salto;370000.0;2;2;68.74;1;casa;2975;Testo Salto;7065;2135;15.0;Rua Werner Duwe;89074-178;13.55;-26.8504419;-49.1519382;venda;portal_imoveis
271;Lote/Terreno à Venda em Blumenau no bairro Ponta Aguda;350000.0;0;0;375.0;0;loteterreno;3065;Ponta Aguda;9880;3233;7.0;Rua Silvano Candido Da Silva Senior;89050-280;;-26.9004052;-49.0464149;venda;portal_imoveis
272;Casa à Venda em Blumenau no bairro Testo Salto;370000.0;2;2;160.0;1;casa;2975;Testo Salto;7065;2135;15.0;Rua Werner Duwe;89074-178;13.55;-26.8504419;-49.1519382;venda;portal_imoveis
273;Casa à Venda em Blumenau no bairro Vila Nova;3100000.0;4;3;1440.0;4;casa;162;Vila Nova;9962;3884;2.0;Rua Joao Gomes Da Nobrega;89035-450;12.8;-26.8986994;-49.0885241;venda;portal_imoveis
274;Casa à Venda em Blumenau no bairro Itoupava Central;2200000.0;3;5;340.0;2;casa;152;Itoupava Central;28164;8715;45.0;Rua Jatoba;89062-256;;-26.8299462;-49.0825392;venda;portal_imoveis
275;Lote em Rua da Glória - Glória - Blumenau/SC;179080.0;0;0;1016.0;0;loteterreno;;Da Gloria;6228;2096;2.0;Rua Da Gloria;89025-300;;-26.9615755;-49.065508;venda;zap_imoveis
276;Apartamento com 02 dormitórios, próximo ao supermercado Top da rua Jose Reuter.;180000.0;2;1;54.0;1;apartamento;;Velha Central;18779;6119;7.0;Rua Jose Reuter;89046-000;;-26.933882;-49.1307406;venda;zap_imoveis
278;Blumenau - Apartamento Padrão - Victor Konder;180000.0;1;1;50.0;0;apartamento;;Vila Nova;9962;3884;2.0;Rua Antonio Da Veiga;89035-205;11.1;-26.909522;-49.0821254;venda;zap_imoveis
279;Terreno ideal p/ construir sua casa dos sonhos em loteamento novo com infraestrutura completa. Local;180000.0;0;0;0.0;0;loteterreno;;Itoupava Seca;4464;1616;3.0;Rua Engenheiro Paul Werner;89030-101;20.7;-26.8962619;-49.0824227;venda;zap_imoveis
281;Casa à Venda em Blumenau no bairro Itoupava Central;2095000.0;4;6;357.0;2;casa;156;Itoupava Central;28164;8715;45.0;Rua Pau Brasil;89062-257;;-26.8299845;-49.0818746;venda;portal_imoveis
282;Casa à Venda em Blumenau no bairro Tribess;827761.0;3;3;198.89;2;casa;2461;Tribess;8503;2691;3.0;Rua Hermann Tribess;89055-400;;-26.8764169;-49.0587461;venda;portal_imoveis
283;Casa à Venda em Blumenau no bairro Escola Agrícola;1065000.0;3;3;222.93;3;casa;143;Escola Agricola;12145;3906;4.0;Rua Ricardo Paul;89037-680;;-26.8918534;-49.0951954;venda;portal_imoveis
284;Apartamento à Venda em Blumenau no bairro Garcia;390000.0;3;2;124.17;2;apartamento;4040;Garcia;15911;5336;5.0;Rua Amazonas;89022-006;18.4;-26.9613043;-49.0655583;venda;portal_imoveis
285;Terreno no bairro Itoupava Central!;180000.0;0;0;371.0;0;loteterreno;;Itoupava Central;28164;8715;45.0;Rua Angela Leicht;89062-030;;-26.8480191;-49.0822692;venda;zap_imoveis
286;Terreno a venda Bairro Salto do Norte;180000.0;0;0;431.0;0;loteterreno;;Salto Do Norte;8441;2779;7.0;Rua Walter Schwantz;89065-350;;-26.8761413;-49.1039381;venda;zap_imoveis
288;Terreno à venda, 700 m² por R$ 180.000,00 - Fortaleza - Blumenau/SC;180000.0;0;0;700.0;0;loteterreno;;Fortaleza;13196;4212;5.0;Rua Heinrich Piske;89057-230;;-26.8624609;-49.0583676;venda;zap_imoveis
290;Casa à Venda em Blumenau no bairro Itoupava Central;1800000.0;3;4;332.0;2;casa;219;Itoupava Central;28164;8715;45.0;Rua Flamboyant;89062-253;;-26.8286471;-49.0868367;venda;portal_imoveis
291;Casa à Venda em Blumenau no bairro Fortaleza Alta;460000.0;3;2;100.95;2;casa;240;Fortaleza Alta;4507;1398;5.0;Rua Villa Fortaleza;89058-014;;-26.8547101;-49.0644198;venda;portal_imoveis
292;Apartamento à Venda em Blumenau no bairro Itoupavazinha;219000.0;2;1;55.0;1;apartamento;;Itoupavazinha;17560;5358;12.0;Rua Henrique Mette;89066-500;;-26.8589924;-49.1246485;venda;portal_imoveis
294;Lote/Terreno à Venda em Blumenau no bairro Ponta Aguda;320000.0;0;0;495.4;0;loteterreno;;Ponta Aguda;9880;3233;7.0;Rua Venezuela;89050-310;;-26.9144216;-49.0642226;venda;portal_imoveis
298;Terreno no Salto do Norte ideal para construção de sobrados;180000.0;0;0;434.0;0;loteterreno;;Salto Do Norte;8441;2779;7.0;Rua Walter Schwantz;89065-350;;-26.8761413;-49.1039381;venda;zap_imoveis
300;Lote/Terreno à Venda em Blumenau no bairro Ponta Aguda;375000.0;0;0;375.0;0;loteterreno;3065;Ponta Aguda;9880;3233;7.0;Rua Silvano Candido Da Silva Senior;89050-280;;-26.9004052;-49.0464149;venda;portal_imoveis
302;Lote/Terreno à Venda em Blumenau no bairro Itoupava Central;2800000.0;0;0;43000.0;0;loteterreno;;Itoupava Central;28164;8715;45.0;Rua Tereza Fischer;89062-080;17.65;-26.8423599;-49.082931;venda;portal_imoveis
303;Apartamento à Venda em Blumenau no bairro Centro;328080.0;1;1;34.54;1;apartamento;148;Centro;5004;1622;2.0;Rua Namy Deeke;89010-130;13.95;-26.917538;-49.0677202;venda;portal_imoveis
304;Casa à Venda em Blumenau no bairro Itoupava Central;2250000.0;4;4;300.0;2;casa;9669;Itoupava Central;28164;8715;45.0;Rua Doutor Pedro Zimmermann;89095-000;;-26.7674501;-49.0800116;venda;portal_imoveis
306;Terreno comercial ou residencial à venda, com 384m², no bairro Itoupavazinha em Blumenau/SC!;180000.0;0;0;384.0;0;loteterreno;;Itoupavazinha;17560;5358;12.0;Rua Luiz Maske;89066-650;;-26.8399033;-49.1205342;venda;zap_imoveis
308;Casa Mista com dois dormitórios;180000.0;2;1;80.0;0;casa;;Itoupavazinha;17560;5358;12.0;Rua San Diego;89066-792;;-26.8592582;-49.1169173;venda;zap_imoveis
309;Terreno escriturado no bairro Salto Weissbach, com 648m² de área total.;180000.0;0;0;0.0;0;loteterreno;;Salto Weissbach;5213;1556;4.0;Rua Paulo Roberto Do Nascimento;89037-470;;-26.9023083;-49.1121121;venda;zap_imoveis
310;Lote/Terreno à Venda em Blumenau no bairro Fortaleza;350000.0;0;0;527.0;0;loteterreno;;Fortaleza;13196;4212;5.0;Rua Vereador Agnelo Paulo Lanser;89056-455;;-26.8700633;-49.0727878;venda;portal_imoveis
311;Casa à Venda em Blumenau no bairro Itoupava Central;1800000.0;3;4;544.0;2;casa;801;Itoupava Central;28164;8715;45.0;Rua Carlos Roesel;89069-250;;-26.7897377;-49.093272;venda;portal_imoveis
312;Lote/Terreno à Venda em Blumenau no bairro Fortaleza;194500.0;0;0;336.0;0;loteterreno;500;Fortaleza;13196;4212;5.0;Rua Vereador Agnelo Paulo Lanser;89056-455;;-26.8700633;-49.0727878;venda;portal_imoveis
313;Sobrado à Venda em Blumenau no bairro Salto do Norte;705000.0;3;4;180.0;2;sobrado;188;Salto Do Norte;8441;2779;7.0;Rua Hermann Knasel;89065-235;;-26.8730188;-49.0919003;venda;portal_imoveis
314;Sobrado à Venda em Blumenau no bairro Passo Manso;480000.0;2;3;120.0;2;sobrado;20;Passo Manso;6799;2069;7.0;Rua Adele Jansen;89032-301;;-26.91153;-49.1469178;venda;portal_imoveis
316;Apartamento na Itoupava Central, contendo 2 dormitórios e 1 vaga de garagem coberta.;180000.0;2;1;38.0;1;apartamento;;Itoupava Central;28164;8715;45.0;Rua Rudolfo Walter;89068-239;;-26.8087992;-49.1004954;venda;zap_imoveis
317;APARTAMENTO COM DOIS DORMITÓRIOS;180000.0;2;1;54.0;1;apartamento;;Velha Central;18779;6119;7.0;Rua Erwin Grahl;89046-410;;-26.9348804;-49.1403187;venda;zap_imoveis
318;Terreno à venda, no Bairro Água Verde!!;180000.0;0;0;3257.0;0;loteterreno;;Agua Verde;16186;5526;5.0;Rua Johann Ohf;89042-299;;-26.9084099;-49.1317914;venda;zap_imoveis
319;AMPLO TERRENO NO BAIRRO VILA ITOUPAVA;180000.0;0;0;1307.0;0;loteterreno;;Itoupava Central;28164;8715;45.0;Rua Saxonia;89095-080;;-26.7410198;-49.0618166;venda;zap_imoveis
320;Casa à Venda em Blumenau no bairro Itoupava Central;550000.0;3;2;152.0;3;casa;449;Itoupava Central;28164;8715;45.0;Rua Ricardo Belz;89069-140;;-26.7922569;-49.1014905;venda;portal_imoveis
321;Lote/Terreno à Venda em Blumenau no bairro Garcia;120000.0;0;0;922.2;0;loteterreno;;Garcia;15911;5336;5.0;Rua Christiano Theiss;89020-410;10.8;-26.9293031;-49.0561492;venda;portal_imoveis
322;Apartamento à Venda em Blumenau no bairro Garcia;431000.0;2;2;81.5;1;apartamento;123;Garcia;15911;5336;5.0;Rua Lydia Zwicker;89021-190;17.15;-26.9438557;-49.0669679;venda;portal_imoveis
323;Apartamento à Venda em Blumenau no bairro Velha;406000.0;2;2;97.0;1;apartamento;128;Agua Verde;16186;5526;5.0;Rua Doutor Antonio Haffner;89036-640;;-26.9142369;-49.0998745;venda;portal_imoveis
327;Vendo Apartamento 02 Quartos – Itoupava Central;180000.0;2;1;45.0;1;apartamento;;Itoupava Central;28164;8715;45.0;Rua Rudolfo Walter;89068-239;;-26.8087992;-49.1004954;venda;zap_imoveis
329;Blumenau - Apartamento Padrão - Progresso;180000.0;2;1;43.0;1;apartamento;;Progresso;15005;4852;7.0;Rua Joao Deola;89027-350;;-26.9872423;-49.0795033;venda;zap_imoveis
330;Apartamento à Venda em Blumenau no bairro Vila Nova;608100.0;3;3;115.1;2;apartamento;96;Vila Nova;9962;3884;2.0;Rua Afonso Pena;89035-280;;-26.9043414;-49.0878844;venda;portal_imoveis
332;Lote/Terreno à Venda em Blumenau no bairro Ponta Aguda;4200000.0;0;0;30000.0;0;loteterreno;;Agua Verde;16186;5526;5.0;Rua Novo Hamburgo;89037-140;;-26.9119375;-49.0949695;venda;portal_imoveis
333;Apartamento à Venda em Blumenau no bairro Vila Nova;643300.0;3;3;129.51;2;apartamento;96;Vila Nova;9962;3884;2.0;Rua Afonso Pena;89035-280;;-26.9043414;-49.0878844;venda;portal_imoveis
334;Apartamento à Venda em Blumenau no bairro Vila Nova;1317100.0;3;3;115.1;2;apartamento;96;Vila Nova;9962;3884;2.0;Rua Afonso Pena;89035-280;;-26.9043414;-49.0878844;venda;portal_imoveis
339;Apartamento à Venda em Blumenau no bairro Velha;239000.0;2;1;66.59;1;apartamento;2512;Velha;15373;5470;6.0;Rua Dos Cacadores;89040-000;;-26.9299594;-49.1245036;venda;portal_imoveis
340;Casa à Venda em Blumenau no bairro Itoupava Central;700000.0;3;3;331.04;4;casa;490;Itoupava Central;28164;8715;45.0;Rua Frederico Voelz;89068-210;16.4;-26.8136448;-49.0921571;venda;portal_imoveis
341;Apartamento à Venda em Blumenau no bairro Itoupava Seca;500000.0;2;2;102.0;1;apartamento;365;Itoupava Seca;4464;1616;3.0;Rua Teresopolis;89030-110;14.75;-26.904098;-49.0807824;venda;portal_imoveis
342;Apartamento à Venda em Blumenau no bairro Água Verde;455000.0;3;2;133.34;1;apartamento;1300;Agua Verde;16186;5526;5.0;Rua Frei Estanislau Schaette;89037-256;19.25;-26.9123839;-49.1120379;venda;portal_imoveis
343;Casa à Venda em Blumenau no bairro Testo Salto;350000.0;2;2;160.0;1;casa;2975;Testo Salto;7065;2135;15.0;Rua Werner Duwe;89074-178;13.55;-26.8504419;-49.1519382;venda;portal_imoveis
344;Terreno ideal p/ construir sua casa dos sonhos em loteamento novo com infraestrutura completa. Loca;180000.0;0;0;0.0;0;loteterreno;;Itoupava Seca;4464;1616;3.0;Rua Engenheiro Paul Werner;89030-101;20.7;-26.8962619;-49.0824227;venda;zap_imoveis
346;LOTE/TERRENO À VENDA NA ITOUPAVA CENTRAL;180000.0;0;0;406.0;0;loteterreno;;Itoupava Central;28164;8715;45.0;Rua Mario Ruediger;89068-304;;-26.8272838;-49.1073917;venda;zap_imoveis
351;Lote/Terreno à Venda em Blumenau no bairro Ribeirão Fresco;215000.0;0;0;399.0;0;loteterreno;;Ribeirao Fresco;1587;513;1.0;Rua Alwin Schrader;89015-125;13.3;-26.9255483;-49.0511884;venda;portal_imoveis
352;Casa à Venda em Blumenau no bairro Fortaleza;495000.0;3;1;324.62;2;casa;331;Fortaleza;13196;4212;5.0;Rua Manoel Pinheiro Da Silva Neto;89057-120;;-26.8689048;-49.0580011;venda;portal_imoveis
353;Apartamento à Venda em Blumenau no bairro Velha;700000.0;3;4;238.0;3;apartamento;361;Velha;15373;5470;6.0;Rua Gustavo Budag;89036-501;17.6;-26.918693;-49.0942472;venda;portal_imoveis
354;Terreno localizado no bairro Fortaleza Alta!;180200.0;0;0;539.0;0;loteterreno;;Itoupava Norte;15648;5258;5.0;Rua Sao Cristovao;89053-590;10.05;-26.8707056;-49.0879875;venda;zap_imoveis
356;Excelente terreno no Bairro Itoupavazinha;183000.0;0;0;324.0;0;loteterreno;;Itoupavazinha;17560;5358;12.0;Rua Punta Del Leste;89066-735;;-26.8563413;-49.1189284;venda;zap_imoveis
358;Terrenos/Lotes a venda no bairro Itoupavazinha/Blumenau-SC!;183000.0;0;0;0.0;0;loteterreno;;Itoupava Seca;4464;1616;3.0;Rua Engenheiro Paul Werner;89030-101;20.7;-26.8962619;-49.0824227;venda;zap_imoveis
359;Lote/Terreno à Venda em Blumenau no bairro Água Verde;880000.0;0;0;881.46;0;loteterreno;;Agua Verde;16186;5526;5.0;Rua Agua Branca;89041-700;;-26.9085947;-49.1217144;venda;portal_imoveis
360;Casa à Venda em Blumenau no bairro Tribess;1000000.0;7;4;1027.46;0;casa;1026;Tribess;8503;2691;3.0;Rua Hermann Tribess;89055-400;;-26.8764169;-49.0587461;venda;portal_imoveis
361;Casa à Venda em Blumenau no bairro Tribess;880000.0;5;3;460.0;2;casa;128;Tribess;8503;2691;3.0;Rua Hermann Tribess;89055-400;;-26.8764169;-49.0587461;venda;portal_imoveis
362;Apartamento à Venda em Blumenau no bairro Velha Central;250000.0;2;1;70.0;1;apartamento;799;Velha Central;18779;6119;7.0;Rua Jose Reuter;89046-000;;-26.933882;-49.1307406;venda;portal_imoveis
363;Apartamento à Venda em Blumenau no bairro Fortaleza;340000.0;2;2;73.97;2;apartamento;41;Fortaleza;13196;4212;5.0;Rua Quadrangular;89056-045;10.4;-26.8791836;-49.067916;venda;portal_imoveis
367;Apartamento com 2 dormitórios, com sacada, churrasqueira e vaga coberta na Velha Central em Blumenau;185000.0;2;1;56.0;1;apartamento;;Velha Central;18779;6119;7.0;Rua Dinamarca;89046-615;;-26.9400911;-49.149765;venda;zap_imoveis
369;Lote/Terreno à Venda em Blumenau no bairro Itoupava Central;940000.0;1;0;5903.88;0;loteterreno;1051;Itoupava Central;28164;8715;45.0;Rua Erich Meyer;89069-300;;-26.7843627;-49.0943118;venda;portal_imoveis
370;Apartamento à Venda em Blumenau no bairro Escola Agrícola;590000.0;3;3;149.07;2;apartamento;59;Escola Agricola;12145;3906;4.0;Rua Francisco Runze;89037-560;;-26.8991002;-49.0983748;venda;portal_imoveis
371;Apartamento à Venda em Blumenau no bairro Vila Nova;1430000.0;4;6;220.0;3;apartamento;64;Vila Nova;9962;3884;2.0;Rua Afonso Pena;89035-280;;-26.9043414;-49.0878844;venda;portal_imoveis
373;Casa à Venda em Blumenau no bairro Velha Central;550000.0;3;2;219.0;2;casa;280;Velha Central;18779;6119;7.0;Rua Freymundo Mette;89040-230;;-26.9286297;-49.1221576;venda;portal_imoveis
375;TERRENO COM 450,00m² A VENDA NA ESCOLA AGRÍCOLA EM BLUMENAU SC;185000.0;0;0;450.0;0;loteterreno;;Escola Agricola;12145;3906;4.0;Rua Saturno;89037-522;;-26.9074186;-49.102672;venda;zap_imoveis
377;Apartamento de 2 dormitórios no ultimo andar no bairro Boa Vista.;185000.0;2;1;48.0;1;apartamento;;Victor Konder;4612;1990;1.0;Rua Carlos Rischbieter;89012-200;16.6;-26.9077427;-49.0732069;venda;zap_imoveis
378;Apartamento com 2 dormitórios à venda, 80 m² por R$ 185.500,00 - Itoupava Central - Blumenau/SC;185500.0;2;1;80.0;1;apartamento;;Itoupava Central;28164;8715;45.0;Rua Rudolfo Walter;89068-239;;-26.8087992;-49.1004954;venda;zap_imoveis
379;Lote/Terreno para Alugar em Blumenau no bairro Tribess;4000.0;0;0;374.0;0;loteterreno;2425;Tribess;8503;2691;3.0;Rua Hermann Tribess;89055-400;;-26.8764169;-49.0587461;locação;portal_imoveis
380;Apartamento à Venda em Blumenau no bairro Centro;270000.0;1;1;46.27;0;apartamento;2014;Centro;5004;1622;2.0;Rua Sete De Setembro;89010-200;;-26.9130355;-49.0790176;venda;portal_imoveis
381;Lote/Terreno à Venda em Blumenau no bairro Vila Itoupava;750000.0;0;0;21550.0;0;loteterreno;;Itoupava Central;28164;8715;45.0;Rua Friedrich Bieging;89095-140;;-26.7383975;-49.062569;venda;portal_imoveis
383;Apartamento para Alugar em Blumenau no bairro Fortaleza;1400.0;2;1;65.0;2;apartamento;1615;Tribess;8503;2691;3.0;Rua Francisco Vahldieck;89057-700;18.35;-26.8835204;-49.0721619;locação;portal_imoveis
384;Lotes a venda no loteamento Vila do Poeta no bairro Itoupavazinha em Blumenau.;187989.0;0;0;277.0;0;loteterreno;;Itoupava Central;28164;8715;45.0;Rua Professor Jacob Ineichen;89066-598;;-26.8426432;-49.1113311;venda;zap_imoveis
385;Apartamento para venda com 41 metros quadrados com 2 quartos em Itoupavazinha - Blumenau - SC;188000.0;2;1;41.0;1;apartamento;;Itoupavazinha;17560;5358;12.0;Rua Henrique Mette;89066-500;;-26.8589924;-49.1246485;venda;zap_imoveis
387;Excelente terreno no Bairro Itoupavazinha;188000.0;0;0;312.0;0;loteterreno;;Itoupavazinha;17560;5358;12.0;Rua Punta Del Leste;89066-735;;-26.8563413;-49.1189284;venda;zap_imoveis
388;Vendo Apartamento Com Cozinha Planejada, 02 quartos, Água Verde – Blumenau;188900.0;2;1;48.0;1;apartamento;;Agua Verde;16186;5526;5.0;Rua Margarida Waldrich;89042-160;;-26.9110469;-49.1264176;venda;zap_imoveis
389;Lote/Terreno à Venda em Blumenau no bairro Centro;2200000.0;0;0;2072.0;4;loteterreno;1879;Centro;5004;1622;2.0;Rua Sete De Setembro;89010-200;;-26.9130355;-49.0790176;venda;portal_imoveis
390;Apartamento para Alugar em Blumenau no bairro Velha;1550.0;2;1;80.0;1;apartamento;2795;Velha;15373;5470;6.0;Rua Dos Cacadores;89040-000;;-26.9299594;-49.1245036;locação;portal_imoveis
391;Lote/Terreno à Venda em Blumenau no bairro Centro;1100000.0;0;1;1375.0;0;loteterreno;372;Centro;5004;1622;2.0;Rua Sao Jose;89010-220;14.0;-26.9169992;-49.072585;venda;portal_imoveis
392;Casa à Venda em Blumenau no bairro Itoupava Norte;287000.0;2;1;100.06;1;casa;645;Itoupava Norte;15648;5258;5.0;Rua Berlim;89052-630;;-26.8842776;-49.0791035;venda;portal_imoveis
393;Casa à Venda em Blumenau no bairro Escola Agrícola;585000.0;3;1;159.0;2;casa;32;Escola Agricola;12145;3906;4.0;Rua Henrique Probst;89037-670;;-26.8932472;-49.0971762;venda;portal_imoveis
394;Ótimo Apartamento no bairro Itoupava Central!;188900.0;2;1;49.0;1;apartamento;;Itoupava Central;28164;8715;45.0;Rua Gustavo Zimmermann;89063-003;18.3;-26.8036671;-49.0875859;venda;zap_imoveis
395;Vendo Lote Na Itoupava Central – Blumenau, SC;189000.0;0;0;420.0;0;loteterreno;;Itoupavazinha;17560;5358;12.0;Rua Paulo Sergio Da Silva;89066-688;;-26.8361895;-49.1143507;venda;zap_imoveis
396;Apartamento com 3 dormitórios, localizado no bairro da Velha;189000.0;3;1;78.0;1;apartamento;;Velha Central;18779;6119;7.0;Rua Divinopolis;89040-400;;-26.9207073;-49.1221006;venda;zap_imoveis
397;|Apartamento com 2 Dormitórios SEMIMOBILIADO a VENDA Bairro Boa Vista - Blumenau SC || La Vita Imóveis|;189000.0;2;1;52.0;1;apartamento;;Victor Konder;4612;1990;1.0;Rua Carlos Rischbieter;89012-200;16.6;-26.9077427;-49.0732069;venda;zap_imoveis
398;Apartamento com 2 dormitórios à venda, 59 m² por R$ 189.000,00 - Itoupavazinha - Blumenau/SC;189000.0;2;1;59.0;1;apartamento;;Itoupavazinha;17560;5358;12.0;Rua Frederico Jensen;89066-510;15.05;-26.8605872;-49.0990946;venda;zap_imoveis
400;Casa para Alugar em Blumenau no bairro Garcia;12900.0;4;2;1300.0;20;casa;108;Garcia;15911;5336;5.0;Rua Engenheiro Odebrecht;89021-200;13.6;-26.9408836;-49.0584558;locação;portal_imoveis
401;Casa à Venda em Blumenau no bairro Velha Central;530000.0;3;3;138.05;2;casa;94;Velha Central;18779;6119;7.0;Rua Erwin Grahl;89046-410;;-26.9348804;-49.1403187;venda;portal_imoveis
402;Lote/Terreno à Venda em Blumenau no bairro Velha Central;1450000.0;0;0;13116.34;0;loteterreno;;Passo Manso;6799;2069;7.0;Rua Bernardo Reiter;89046-200;;-26.9278486;-49.1432775;venda;portal_imoveis
403;Apartamento à Venda em Blumenau no bairro Água Verde;296000.0;2;1;89.96;1;apartamento;111;Agua Verde;16186;5526;5.0;Rua Guabiruba;89040-465;;-26.9143672;-49.1272598;venda;portal_imoveis
404;Casa em Rua Leopoldo Heringer - Progresso - Blumenau/SC;189300.0;2;1;70.0;0;casa;;Progresso;15005;4852;7.0;Rua Leopoldo Heringer;89026-640;;-26.9623738;-49.0984589;venda;zap_imoveis
406;Apartamento com 2 dormitórios à venda por R$ 190.000,00 - Itoupava Central - Blumenau/SC;190000.0;2;1;64.0;1;apartamento;;Itoupava Central;28164;8715;45.0;Rua Gustavo Zimmermann;89063-003;18.3;-26.8036671;-49.0875859;venda;zap_imoveis
408;Lotes a venda no bairro Itoupava Central!;190000.0;0;0;327.0;0;loteterreno;;Itoupava Seca;4464;1616;3.0;Rua Engenheiro Paul Werner;89030-101;20.7;-26.8962619;-49.0824227;venda;zap_imoveis
409;Lote/Terreno à Venda em Blumenau no bairro Ponta Aguda;667926.0;0;0;513.0;0;loteterreno;1983;Ponta Aguda;9880;3233;7.0;Rua Republica Argentina;89050-213;15.75;-26.9064258;-49.0448293;venda;portal_imoveis
410;Apartamento à Venda em Blumenau no bairro Escola Agrícola;316837.0;2;2;82.0;1;apartamento;474;Escola Agricola;12145;3906;4.0;Rua Norberto Seara Heusi;89037-800;;-26.8920906;-49.0985074;venda;portal_imoveis
412;Casa para Alugar em Blumenau no bairro Vila Nova;4995.0;3;2;240.0;3;casa;71;Vila Nova;9962;3884;2.0;Rua Casemiro De Abreu;89035-600;14.1;-26.9016572;-49.0904408;locação;portal_imoveis
413;Casa para Alugar em Blumenau no bairro Itoupava Norte;2500.0;3;1;100.0;1;casa;100;Itoupava Norte;15648;5258;5.0;Rua Roseli Schoenau;89053-075;;-26.8779871;-49.0798036;locação;portal_imoveis
415;Vende Terreno em Ótima Localização No Loteamento Parque Residencial Salto;190000.0;0;0;416.0;0;loteterreno;;Salto Do Norte;8441;2779;7.0;Rua Walter Schwantz;89065-350;;-26.8761413;-49.1039381;venda;zap_imoveis
419;Lote/Terreno à Venda em Blumenau no bairro Salto do Norte;2300000.0;0;0;6928.8;10;loteterreno;1437;Salto Do Norte;8441;2779;7.0;Rua Pomerode;89065-301;14.75;-26.8785312;-49.1012611;venda;portal_imoveis
423;Apartamento à Venda em Blumenau no bairro Itoupava Central;600000.0;3;4;196.4;2;apartamento;4410;Itoupava Central;28164;8715;45.0;Rua Gustavo Zimmermann;89063-003;18.3;-26.8036671;-49.0875859;venda;portal_imoveis
425;Casa à Venda em Blumenau no bairro Testo Salto;449900.0;3;2;585.38;2;casa;440;Testo Salto;7065;2135;15.0;Rua Rudolfo Kienen;89074-410;;-26.8510996;-49.1463182;venda;portal_imoveis
427;Lote/Terreno à Venda em Blumenau no bairro Escola Agrícola;5489000.0;0;0;4075.0;0;loteterreno;85;Vila Nova;9962;3884;2.0;Rua Benjamin Constant;89037-502;12.1;-26.8948773;-49.0987164;venda;portal_imoveis
428;Apartamento à Venda em Blumenau no bairro Itoupava Seca;259000.0;1;1;66.86;1;apartamento;150;Itoupava Seca;4464;1616;3.0;Rua Teresopolis;89030-110;14.75;-26.904098;-49.0807824;venda;portal_imoveis
429;Lote/Terreno à Venda em Blumenau no bairro Vila Nova;930000.0;0;0;539.0;1;loteterreno;2419;Vila Nova;9962;3884;2.0;Rua Benjamin Constant;89037-502;12.1;-26.8948773;-49.0987164;venda;portal_imoveis
434;Linda casa no bairro Valparaiso;190000.0;3;2;120.0;1;casa;;Valparaiso;5280;1774;1.0;Rua Raulino Naumann;89023-230;;-26.9519337;-49.07988;venda;zap_imoveis
436;Lote/Terreno à Venda em Blumenau no bairro Itoupavazinha;245000.0;0;0;303.0;0;loteterreno;;Itoupavazinha;17560;5358;12.0;Rua Francisca Krenkel;89070-535;;-26.8604559;-49.1219664;venda;portal_imoveis
437;Lote/Terreno à Venda em Blumenau no bairro Itoupava Central;940000.0;0;0;5903.88;0;loteterreno;1051;Itoupava Central;28164;8715;45.0;Rua Erich Meyer;89069-300;;-26.7843627;-49.0943118;venda;portal_imoveis
438;Apartamento à Venda em Blumenau no bairro Água Verde;315000.0;3;1;135.0;2;apartamento;215;Agua Verde;16186;5526;5.0;Rua Presidente Getulio;89037-060;16.7;-26.9111715;-49.0984204;venda;portal_imoveis
439;Apartamento para Alugar em Blumenau no bairro Victor Konder;1500.0;1;1;75.6;1;apartamento;285;Victor Konder;4612;1990;1.0;Rua Max Hering;89012-510;13.85;-26.9073376;-49.0785149;locação;portal_imoveis
445;Casa à Venda em Blumenau no bairro Fortaleza;1100000.0;3;4;779.57;4;casa;529;Fortaleza;13196;4212;5.0;Rua Alberto Felicio Adriano;89055-050;15.4;-26.8773731;-49.0645364;venda;portal_imoveis
446;Lote/Terreno à Venda em Blumenau no bairro Velha;599000.0;0;0;330.0;0;loteterreno;;Velha;15373;5470;6.0;Rua Jaragua;89036-400;15.4;-26.9175762;-49.0917647;venda;portal_imoveis
447;Lote/Terreno à Venda em Blumenau no bairro Testo Salto;270000.0;0;0;398.44;0;loteterreno;440;Testo Salto;7065;2135;15.0;Rua Rudolfo Kienen;89074-410;;-26.8510996;-49.1463182;venda;portal_imoveis
448;Lote/Terreno para Alugar em Blumenau no bairro Escola Agrícola;2500.0;0;0;400.0;0;loteterreno;57;Escola Agricola;12145;3906;4.0;Rua Ernesto Jensem;89031-245;;-27.2998051;-49.628929;locação;portal_imoveis
449;Lote/Terreno para Alugar em Blumenau no bairro Vorstadt;2100.0;0;0;1200.0;0;loteterreno;1860;Vorstadt;4269;1690;4.0;Rua Itajai;89015-208;17.3;-26.9116961;-49.0469884;locação;portal_imoveis
450;Apartamento à venda, com 72 m² por R$ 190.000,00, no bairro Itoupavazinha em Blumenau/SC!;190000.0;2;1;72.0;1;apartamento;;Itoupavazinha;17560;5358;12.0;Rua Frederico Jensen;89066-510;15.05;-26.8605872;-49.0990946;venda;zap_imoveis
451;APARTAMENTO ITOUPAVA CENTRAL PRÓXIMO LOJAO PROGRESSO;190000.0;2;1;45.0;1;apartamento;;Itoupava Central;28164;8715;45.0;Rua Henrique Passold;89062-020;17.65;-26.8481167;-49.0819359;venda;zap_imoveis
452;APARTAMENTO Á VENDA BAIRRO ITOUPAVA CENTRAL - BLUMENAU;190000.0;2;1;48.0;1;apartamento;;Itoupava Central;28164;8715;45.0;Rua Professor Jacob Ineichen;89066-598;;-26.8426432;-49.1113311;venda;zap_imoveis
454;Apartamento à Venda em Blumenau no bairro Vila Nova;528061.0;2;1;85.4;1;apartamento;54;Escola Agricola;12145;3906;4.0;Rua Sao Manoel;89037-625;;-26.9035809;-49.0971173;venda;portal_imoveis
455;Casa para Alugar em Blumenau no bairro Vorstadt;5800.0;4;2;169.44;2;casa;1715;Vorstadt;4269;1690;4.0;Rua Itajai;89015-208;17.3;-26.9116961;-49.0469884;locação;portal_imoveis
456;Lote/Terreno para Alugar em Blumenau no bairro Vila Nova;10000.0;0;0;800.0;0;loteterreno;128;Vila Nova;9962;3884;2.0;Rua Joinville;89035-200;13.6;-26.9085016;-49.0822647;locação;portal_imoveis
457;Lote/Terreno para Alugar em Blumenau no bairro Vila Nova;6000.0;0;0;540.0;0;loteterreno;16;Vila Nova;9962;3884;2.0;Rua Nilo Pecanha;89035-260;;-26.9046336;-49.087186;locação;portal_imoveis
458;Apartamento à Venda em Blumenau no bairro Velha;330000.0;2;2;59.25;2;apartamento;64;Velha;15373;5470;6.0;Rua Araras;89036-452;;-26.9238492;-49.0917702;venda;portal_imoveis
459;Apartamento com 2 dormitórios à venda, 43 m² por R$ 190.490,00 - Itoupava Central - Blumenau/SC;190490.0;2;1;43.0;0;apartamento;;Itoupava Central;28164;8715;45.0;Rua Rudolfo Walter;89068-239;;-26.8087992;-49.1004954;venda;zap_imoveis
460;SOHO Lofts no Centro de Blumenau;192702.0;1;1;28.0;1;kitnet;;Centro;5004;1622;2.0;Rua Sete De Setembro;89010-200;;-26.9130355;-49.0790176;venda;zap_imoveis
463;Excelente terreno no Bairro Itoupavazinha;194000.0;0;0;325.0;0;loteterreno;;Itoupavazinha;17560;5358;12.0;Rua Punta Del Leste;89066-735;;-26.8563413;-49.1189284;venda;zap_imoveis
464;Lote/Terreno à Venda em Blumenau no bairro Badenfurt;1500000.0;0;0;47322.0;0;loteterreno;;Badenfurt;8650;2753;12.0;Rua Hulda Karsten;89070-130;;-26.8853325;-49.1262651;venda;portal_imoveis
465;Casa à Venda em Blumenau no bairro Badenfurt;1200000.0;3;2;7015.0;2;casa;1725;Badenfurt;8650;2753;12.0;Rua Heinrich Hemmer;89070-272;18.95;-26.8820467;-49.1224641;venda;portal_imoveis
466;Casa à Venda em Blumenau no bairro Vorstadt;790000.0;3;4;193.47;4;casa;23;Vorstadt;4269;1690;4.0;Rua Humaita;89015-280;;-26.9132525;-49.0480271;venda;portal_imoveis
468;Apartamento à Venda em Blumenau no bairro Velha;252000.0;1;1;39.0;1;apartamento;64;Velha;15373;5470;6.0;Rua Araras;89036-452;;-26.9238492;-49.0917702;venda;portal_imoveis
469;Terrenos Fortaleza Blumenau;194500.0;0;0;336.0;0;loteterreno;;Fortaleza;13196;4212;5.0;Rua Oswaldo Bonetti Kuestner;89056-456;;-26.8662572;-49.072395;venda;zap_imoveis
470;Terreno no bairro Fortaleza;194500.0;0;0;0.0;0;loteterreno;;Fortaleza;13196;4212;5.0;Rua Helmuth Wandrey;89056-458;;-26.8666179;-49.0730005;venda;zap_imoveis
471;Ótima oportunidade de adquirir seu lote no bairro Fortaleza....Últimas unidades....Parcelado diretam;194500.0;0;0;336.0;0;loteterreno;;Fortaleza;13196;4212;5.0;Rua Vereador Agnelo Paulo Lanser;89056-455;;-26.8700633;-49.0727878;venda;zap_imoveis
472;Ótima oportunidade de adquirir seu lote no bairro Fortaleza....Últimas unidades....Parcelado diretam;194500.0;0;0;336.0;0;loteterreno;;Fortaleza;13196;4212;5.0;Rua Vereador Agnelo Paulo Lanser;89056-455;;-26.8700633;-49.0727878;venda;zap_imoveis
473;LOTES A VENDA EM BLUMENAU NO BAIRRO FORTALEZA;194500.0;0;0;0.0;0;loteterreno;;Fortaleza;13196;4212;5.0;Rua Vereador Agnelo Paulo Lanser;89056-455;;-26.8700633;-49.0727878;venda;zap_imoveis
474;Lote/Terreno à Venda em Blumenau no bairro Itoupava Norte;555000.0;0;0;480.0;0;loteterreno;;Itoupava Norte;15648;5258;5.0;Rua Otto Mordhorst;89053-610;11.45;-26.8734257;-49.0849878;venda;portal_imoveis
475;Apartamento para Alugar em Blumenau no bairro Velha Central;1300.0;2;1;60.0;0;apartamento;177;Velha Central;18779;6119;7.0;Rua Hermann Barthel;89046-560;;-26.9316332;-49.1478673;locação;portal_imoveis
476;Apartamento à Venda em Blumenau no bairro Escola Agrícola;300000.0;3;1;90.0;1;apartamento;207;Escola Agricola;12145;3906;4.0;Rua Doutor Paulo Aldinger;89037-690;;-26.8922135;-49.0983306;venda;portal_imoveis
478;Casa para Alugar em Blumenau no bairro Centro;8000.0;10;5;1042.0;20;casa;644;Jardim Blumenau;2855;1004;1.0;Rua Floriano Peixoto;89010-325;18.0;-26.9221084;-49.0635103;locação;portal_imoveis
479;terrenos 336,00m2 no loteamento Exelcior na Fortaleza em frente a via expressa.;194500.0;0;0;336.0;0;loteterreno;;Fortaleza;13196;4212;5.0;Rua Vereador Agnelo Paulo Lanser;89056-455;;-26.8700633;-49.0727878;venda;zap_imoveis
480;Excelente Oportunidade!;194661.0;3;2;152.0;2;casa;;Progresso;15005;4852;7.0;Rua Erico Verissimo;89026-275;;-26.9685845;-49.0749231;venda;zap_imoveis
481;Casa com 3 dormitórios e amplo terreno, em ótima localização, com acesso pela frente por uma rua e f;195000.0;3;1;63.0;0;casa;;Agua Verde;16186;5526;5.0;Rua Johann Ohf;89042-299;;-26.9084099;-49.1317914;venda;zap_imoveis
482;Apartamento com 2 quartos e sacada com churrasqueira, em ótima localização no bairro Itoupava Centr;195000.0;2;1;52.0;1;apartamento;;Itoupava Central;28164;8715;45.0;Rua Gustavo Zimmermann;89063-003;18.3;-26.8036671;-49.0875859;venda;zap_imoveis
485;Apartamento à Venda em Blumenau no bairro Água Verde;250000.0;3;2;102.53;1;apartamento;269;Agua Verde;16186;5526;5.0;Rua Trombudo Central;89041-480;;-26.9135665;-49.1164143;venda;portal_imoveis
486;Apartamento para Alugar em Blumenau no bairro Centro;2000.0;2;1;74.0;1;apartamento;63;Velha;15373;5470;6.0;Rua Rio Do Sul;89036-020;13.3;-27.0402804;-49.3963133;locação;portal_imoveis
487;Apartamento à Venda em Blumenau no bairro Itoupava Seca;879000.0;3;2;143.0;2;apartamento;255;Itoupava Seca;4464;1616;3.0;Rua Iguape;89030-112;14.25;-26.9052032;-49.0809125;venda;portal_imoveis
488;Apartamento para Alugar em Blumenau no bairro Victor Konder;2550.0;3;2;145.69;2;apartamento;988;Victor Konder;4612;1990;1.0;Rua Sao Paulo;89030-001;14.45;-26.9044071;-49.0773754;locação;portal_imoveis
490;Lotes a venda no bairro Itoupava Central!;195000.0;0;0;0.0;0;loteterreno;;Itoupava Seca;4464;1616;3.0;Rua Engenheiro Paul Werner;89030-101;20.7;-26.8962619;-49.0824227;venda;zap_imoveis
491;TERRENO A VENDA NO BAIRRO ITOUPAVAZINHA EM BLUMENAU SC;195000.0;0;0;360.0;0;loteterreno;;Itoupavazinha;17560;5358;12.0;Rua Das Petunias;89066-332;;-26.8534654;-49.0950224;venda;zap_imoveis
494;Lote/Terreno à Venda em Blumenau no bairro Centro;350000.0;0;0;388.7;0;loteterreno;103;Velha;15373;5470;6.0;Rua Goiania;89036-030;13.0;-26.9166374;-49.0776698;venda;portal_imoveis
496;Sobrado à Venda em Blumenau no bairro Ponta Aguda;730000.0;3;4;150.0;2;sobrado;;Ponta Aguda;9880;3233;7.0;Rua Edmundo Da Silva Pozes;89050-205;;-26.9071351;-49.0467399;venda;portal_imoveis
497;Sobrado à Venda em Blumenau no bairro Ponta Aguda;745000.0;3;4;156.0;2;sobrado;;Ponta Aguda;9880;3233;7.0;Rua Edmundo Da Silva Pozes;89050-205;;-26.9071351;-49.0467399;venda;portal_imoveis
498;Casa à Venda em Blumenau no bairro Ribeirão Fresco;390000.0;4;2;16000.0;1;casa;233;Ribeirao Fresco;1587;513;1.0;Rua Henrique Ave Lallemant;89015-190;;-26.9268668;-49.0373281;venda;portal_imoveis
501;Terreno, Passo Manso, Blumenau, escriturado;195000.0;0;0;302.0;0;loteterreno;;Passo Manso;6799;2069;7.0;Rua Alfonso Nicolao Bornhofen;89032-452;;-26.9016792;-49.153925;venda;zap_imoveis
504;Casa à Venda em Blumenau no bairro Velha Central;380000.0;3;2;300.0;3;casa;298;Velha Central;18779;6119;7.0;Rua Grecia;89046-633;;-26.9402675;-49.1523091;venda;portal_imoveis
506;Casa à Venda em Blumenau no bairro Do Salto;585000.0;3;3;198.0;2;casa;22;Do Salto;4558;1445;2.0;Rua Apostolo Sao Paulo;89031-576;;-26.8882141;-49.1121;venda;portal_imoveis
507;Lote/Terreno à Venda em Blumenau no bairro Garcia;1500000.0;0;0;8927.44;0;loteterreno;;Garcia;15911;5336;5.0;Rua Ararangua;89020-302;14.05;-26.938174;-49.0538273;venda;portal_imoveis
508;Casa à Venda em Blumenau no bairro Água Verde;690000.0;3;2;796.8;2;casa;50;Agua Verde;16186;5526;5.0;Rua Joaquina Soares;89041-540;;-26.9104445;-49.1191786;venda;portal_imoveis
510;Casa semi mobiliada no Bairro Garcia, com 100 m², contendo 3 dormitórios e 2 banheiros.;195000.0;2;2;100.0;1;casa;;Garcia;15911;5336;5.0;Rua Engenheiro Odebrecht;89021-200;13.6;-26.9408836;-49.0584558;venda;zap_imoveis
511;Apartamento Residencial Germânia - 68m² - Itoupavazinha/Blumenau;195000.0;2;1;68.0;1;apartamento;;Itoupavazinha;17560;5358;12.0;Rua Frederico Jensen;89066-510;15.05;-26.8605872;-49.0990946;venda;zap_imoveis
513;Excelente terreno no Bairro Itoupavazinha;198000.0;0;0;317.0;0;loteterreno;;Itoupavazinha;17560;5358;12.0;Rua Punta Del Leste;89066-735;;-26.8563413;-49.1189284;venda;zap_imoveis
514;Apartamento para Alugar em Blumenau no bairro Salto do Norte;1150.0;2;1;60.0;1;apartamento;2286;Salto Do Norte;8441;2779;7.0;Rua Engenheiro Udo Deeke;89065-101;19.95;-26.8714168;-49.095702;locação;portal_imoveis
515;Apartamento à Venda em Blumenau no bairro Bom Retiro;2800000.0;3;5;490.0;3;apartamento;93;Bom Retiro;1117;407;1.0;Rua Hermann Hering;89010-600;;-26.9259164;-49.0683484;venda;portal_imoveis
516;Lote/Terreno à Venda em Blumenau no bairro Fortaleza;285000.0;0;0;387.31;0;loteterreno;89;Fortaleza;13196;4212;5.0;Rua Artur Correa;89056-164;;-26.8724037;-49.0740274;venda;portal_imoveis
518;Casa para Alugar em Blumenau no bairro Ribeirão Fresco;1150.0;2;1;75.0;1;casa;659;Ribeirao Fresco;1587;513;1.0;Rua Pastor Oswald Hesse;89015-100;;-26.9279792;-49.0390287;locação;portal_imoveis
519;Apartamento Padrão para Venda em Velha Central Blumenau-SC - 776;198000.0;3;1;66.0;0;apartamento;;Velha;15373;5470;6.0;Rua Dos Cacadores;89040-000;;-26.9299594;-49.1245036;venda;zap_imoveis
520;Apartamento Padrão para Venda em Velha Blumenau-SC - 776.1;198000.0;3;1;66.0;0;apartamento;;Velha;15373;5470;6.0;Rua Dos Cacadores;89040-000;;-26.9299594;-49.1245036;venda;zap_imoveis
521;Blumenau - Apartamento Padrão - Progresso;198000.0;2;1;56.0;1;apartamento;;Progresso;15005;4852;7.0;Rua Joao Deola;89027-350;;-26.9872423;-49.0795033;venda;zap_imoveis
523;Apartamento com 2 dormitório mobiliado.;198000.0;2;1;48.0;1;apartamento;;Passo Manso;6799;2069;7.0;Rua Edmund Thurow;89032-430;;-26.9071411;-49.1509277;venda;zap_imoveis
524;Casa à Venda em Blumenau no bairro Itoupava Central;295000.0;2;2;85.0;2;casa;;Itoupava Central;28164;8715;45.0;Rua Arnoldo Zuelow;89069-082;;-26.8046607;-49.0903124;venda;portal_imoveis
525;Casa à Venda em Blumenau no bairro Itoupava Central;305000.0;2;2;85.0;2;casa;;Itoupava Central;28164;8715;45.0;Rua Arnoldo Zuelow;89069-082;;-26.8046607;-49.0903124;venda;portal_imoveis
526;Lote/Terreno à Venda em Blumenau no bairro Vorstadt;279000.0;0;0;1200.0;0;loteterreno;1860;Vorstadt;4269;1690;4.0;Rua Itajai;89015-208;17.3;-26.9116961;-49.0469884;venda;portal_imoveis
527;Sobrado à Venda em Blumenau no bairro Itoupava Norte;399000.0;2;3;92.37;2;sobrado;73;Itoupava Norte;15648;5258;5.0;Rua Santa Cruz;89053-145;;-26.8806388;-49.0755442;venda;portal_imoveis
528;Sobrado à Venda em Blumenau no bairro Itoupava Norte;510000.0;3;1;122.87;2;sobrado;73;Itoupava Norte;15648;5258;5.0;Rua Santa Cruz;89053-145;;-26.8806388;-49.0755442;venda;portal_imoveis
532;Apartamento para venda tem 50 metros quadrados com 2 quartos;199000.0;2;1;50.0;1;apartamento;;Itoupava Central;28164;8715;45.0;Rua Gustavo Zimmermann;89063-003;18.3;-26.8036671;-49.0875859;venda;zap_imoveis
534;Casa à Venda em Blumenau no bairro Bom Retiro;680000.0;4;2;1465.55;3;casa;349;Bom Retiro;1117;407;1.0;Rua Augusto Otte;89010-680;;-26.9259373;-49.074553;venda;portal_imoveis
535;Casa para Alugar em Blumenau no bairro Salto Weissbach;6500.0;3;2;500.0;4;casa;4468;Agua Verde;16186;5526;5.0;Rua General Osorio;89032-239;;-26.909049;-49.1246971;locação;portal_imoveis
537;Casa à Venda em Blumenau no bairro Velha;600000.0;3;2;463.43;1;casa;1025;Agua Verde;16186;5526;5.0;Rua General Osorio;89032-239;;-26.909049;-49.1246971;venda;portal_imoveis
540;Casa de 72 metros quadrados no bairro Água Verde com 2 quartos;199000.0;2;2;72.0;2;casa;;Agua Verde;16186;5526;5.0;Rua Francisco Faust;89037-095;;-26.9099813;-49.102489;venda;zap_imoveis
543;Lindo apartamento, no Bairro Velha Central!;199000.0;2;1;47.0;1;apartamento;;Velha Central;18779;6119;7.0;Rua Jose Seibt;89046-060;;-26.9363585;-49.1412166;venda;zap_imoveis
545;Apartamento à Venda em Blumenau no bairro Salto Weissbach;255000.0;3;2;111.0;1;apartamento;5800;Salto Weissbach;5213;1556;4.0;Rua Bahia;89032-525;14.8;-26.8867411;-49.0937241;venda;portal_imoveis
546;Casa à Venda em Blumenau no bairro Salto Weissbach;410000.0;2;1;360.0;2;casa;19;Salto Weissbach;5213;1556;4.0;Rua Fernandes Marques Brinhosa;89032-138;;-26.9005326;-49.1285643;venda;portal_imoveis
547;Apartamento à Venda em Blumenau no bairro Vila Nova;621000.0;2;3;135.4;1;apartamento;621;Vila Nova;9962;3884;2.0;Rua Almirante Tamandare;89035-000;13.85;-26.9108213;-49.0826753;venda;portal_imoveis
548;Casa à Venda em Blumenau no bairro Itoupava Central;830000.0;3;3;800.0;2;casa;62;Itoupava Central;28164;8715;45.0;Rua Harry Griebel;89068-130;;-26.8195899;-49.0941627;venda;portal_imoveis
553;Lote 49 - Loteamento Residencial Dona Isa;200000.0;0;0;418.0;0;loteterreno;;Itoupava Central;28164;8715;45.0;Rua Linda Rudiger;89068-302;;-26.8268499;-49.1073468;venda;zap_imoveis
554;Apartamento à Venda em Blumenau no bairro Jardim Blumenau;1100000.0;3;4;178.25;3;apartamento;129;Jardim Blumenau;2855;1004;1.0;Rua Coronel Vidal Ramos;89010-330;10.5;-26.9258216;-49.0628314;venda;portal_imoveis
555;Lote/Terreno à Venda em Blumenau no bairro Água Verde;250000.0;0;0;518.0;0;loteterreno;;Velha Central;18779;6119;7.0;Rua Augusto Gustavo Isleb;89042-282;;-26.9142189;-49.126657;venda;portal_imoveis
556;Casa para Alugar em Blumenau no bairro Salto do Norte;2500.0;3;1;100.0;0;casa;888;Salto Do Norte;8441;2779;7.0;Rua Pomerode;89065-301;14.75;-26.8785312;-49.1012611;locação;portal_imoveis
558;Casa à Venda em Blumenau no bairro Velha;580000.0;2;3;172.0;1;casa;84;Velha;15373;5470;6.0;Rua Araras;89036-452;;-26.9238492;-49.0917702;venda;portal_imoveis
564;Casa à Venda em Blumenau no bairro Velha;580000.0;2;3;172.0;1;casa;84;Velha;15373;5470;6.0;Rua Araras;89036-452;;-26.9238492;-49.0917702;venda;portal_imoveis
565;Casa à Venda em Blumenau no bairro Velha;580000.0;2;3;172.0;1;casa;84;Velha;15373;5470;6.0;Rua Araras;89036-452;;-26.9238492;-49.0917702;venda;portal_imoveis
566;Casa à Venda em Blumenau no bairro Velha;580000.0;2;3;172.0;1;casa;84;Velha;15373;5470;6.0;Rua Araras;89036-452;;-26.9238492;-49.0917702;venda;portal_imoveis
567;Casa à Venda em Blumenau no bairro Velha;730000.0;3;3;182.0;2;casa;84;Velha;15373;5470;6.0;Rua Araras;89036-452;;-26.9238492;-49.0917702;venda;portal_imoveis
568;Casa à Venda em Blumenau no bairro Velha;480000.0;2;3;178.95;2;casa;;Velha;15373;5470;6.0;Rua Maria Bugmann;89041-380;;-26.9143618;-49.1142082;venda;portal_imoveis
569;Apartamento em condomínio fechado, com dois dormitórios e sacada, no bairro Água Verde em Blumenau!;200000.0;2;1;55.0;1;apartamento;;Agua Verde;16186;5526;5.0;Rua Margarida Waldrich;89042-160;;-26.9110469;-49.1264176;venda;zap_imoveis
570;Blumenau - Apartamento Padrão - Itoupava Central;200000.0;2;1;49.0;1;apartamento;;Itoupava Central;28164;8715;45.0;Rua Rudolfo Walter;89068-239;;-26.8087992;-49.1004954;venda;zap_imoveis
574;Casa à Venda em Blumenau no bairro Velha;470000.0;2;3;178.95;2;casa;;Velha;15373;5470;6.0;Rua Maria Bugmann;89041-380;;-26.9143618;-49.1142082;venda;portal_imoveis
575;Casa à Venda em Blumenau no bairro Velha;470000.0;2;3;178.95;2;casa;;Velha;15373;5470;6.0;Rua Maria Bugmann;89041-380;;-26.9143618;-49.1142082;venda;portal_imoveis
576;Casa à Venda em Blumenau no bairro Velha;470000.0;2;3;178.95;2;casa;;Velha;15373;5470;6.0;Rua Maria Bugmann;89041-380;;-26.9143618;-49.1142082;venda;portal_imoveis
577;Casa à Venda em Blumenau no bairro Itoupava Central;290000.0;2;1;81.0;1;casa;127;Itoupava Central;28164;8715;45.0;Rua Das Orquideas;89066-680;;-26.8398588;-49.1035696;venda;portal_imoveis
578;Casa para Alugar em Blumenau no bairro Escola Agrícola;5500.0;4;5;500.0;3;casa;280;Escola Agricola;12145;3906;4.0;Rua Aloys De Zutter;89037-640;;-26.8984051;-49.0971169;locação;portal_imoveis
579;Terreno Portal da Saxônia;200000.0;0;0;876.0;0;loteterreno;;Ponta Aguda;9880;3233;7.0;Rua Stuttgart;89050-490;;-26.9042756;-49.0544694;venda;zap_imoveis
584;Apartamento à Venda em Blumenau no bairro Vila Nova;671000.0;2;3;135.4;1;apartamento;621;Vila Nova;9962;3884;2.0;Rua Almirante Tamandare;89035-000;13.85;-26.9108213;-49.0826753;venda;portal_imoveis
585;Apartamento à Venda em Blumenau no bairro Vila Nova;656000.0;2;3;135.4;1;apartamento;621;Vila Nova;9962;3884;2.0;Rua Almirante Tamandare;89035-000;13.85;-26.9108213;-49.0826753;venda;portal_imoveis
586;Apartamento à Venda em Blumenau no bairro Vila Nova;681000.0;2;3;135.4;1;apartamento;621;Vila Nova;9962;3884;2.0;Rua Almirante Tamandare;89035-000;13.85;-26.9108213;-49.0826753;venda;portal_imoveis
588;Apartamento à Venda em Blumenau no bairro Vila Nova;850000.0;3;4;360.0;3;apartamento;181;Vila Nova;9962;3884;2.0;Rua Frei Gabriel Zimmer;89035-510;14.15;-26.9024045;-49.0875439;venda;portal_imoveis
591;Condo Hotel em Blumenau;200000.0;1;1;14.0;1;flat;;Centro;5004;1622;2.0;Rua Paulo Zimmermann;89010-170;11.8;-26.9151262;-49.0709675;venda;zap_imoveis
592;Flat Ibis Budget Blumenau 14m² 1 dormitório 1 vaga para investimento no pool.;200000.0;1;1;14.0;1;flat;;Centro;5004;1622;2.0;Rua Paulo Zimmermann;89010-170;11.8;-26.9151262;-49.0709675;venda;zap_imoveis
593;Excelente terreno com 726m2 em final de rua.;200000.0;0;0;726.0;0;loteterreno;;Itoupavazinha;17560;5358;12.0;Rua Benjamin Margarida;89066-665;;-26.838497;-49.1099535;venda;zap_imoveis
594;Apartamento à Venda em Blumenau no bairro Victor Konder;380000.0;1;1;48.0;1;apartamento;66;Victor Konder;4612;1990;1.0;Rua Tocantins;89012-020;11.55;-26.9125919;-49.0702274;venda;portal_imoveis
595;Apartamento à Venda em Blumenau no bairro Água Verde;220000.0;2;1;72.0;1;apartamento;194;Velha;15373;5470;6.0;Rua Angelina Cordeiro Herkenhoff;89041-130;;-26.9147105;-49.1082595;venda;portal_imoveis
596;Lote/Terreno à Venda em Blumenau no bairro Garcia;640000.0;0;0;22800.0;0;loteterreno;382;Garcia;15911;5336;5.0;Rua Rui Silva;89021-430;;-26.9419578;-49.0648551;venda;portal_imoveis
597;Casa à Venda em Blumenau no bairro Velha Central;480000.0;3;2;190.0;2;casa;174;Fortaleza;13196;4212;5.0;Rua Zilmar Rubens Franca;89056-107;;-26.8697129;-49.0741599;venda;portal_imoveis
598;Lote/Terreno à Venda em Blumenau no bairro Velha Grande;949000.0;0;0;40139.98;0;loteterreno;;Velha Grande;4332;1221;2.0;Rua Bruno Ruediger;89045-439;;-26.9476886;-49.1275857;venda;portal_imoveis
599;Ótimo apartamento no bairro Aguá Verde;200000.0;2;1;59.0;1;apartamento;;Agua Verde;16186;5526;5.0;Rua Margarida Waldrich;89042-160;;-26.9110469;-49.1264176;venda;zap_imoveis
600;Apartamento barato na água verde;200000.0;2;1;47.0;1;apartamento;;Agua Verde;16186;5526;5.0;Rua Margarida Waldrich;89042-160;;-26.9110469;-49.1264176;venda;zap_imoveis
602;Terreno no loteamento Blumenberg;200000.0;0;0;300.0;0;loteterreno;;Itoupava Central;28164;8715;45.0;Rua Ricardo Georg;89069-100;;-26.7968587;-49.0994516;venda;zap_imoveis
603;Apartamento com 2 dormitórios à venda por R$ 200.000,00 - Salto do Norte - Blumenau/SC;200000.0;2;1;58.0;1;apartamento;;Salto Do Norte;8441;2779;7.0;Rua Osni Jensen;89065-280;12.5;-26.8778205;-49.099843;venda;zap_imoveis
604;Apartamento à Venda em Blumenau no bairro Itoupavazinha;229000.0;2;1;59.0;2;apartamento;36;Itoupavazinha;17560;5358;12.0;Rua Amsterdam;89070-490;;-26.8606267;-49.1270139;venda;portal_imoveis
605;Casa à Venda em Blumenau no bairro Velha;460000.0;2;2;123.0;2;casa;980;Velha;15373;5470;6.0;Rua Imperatriz Leopoldina;89041-200;;-26.9174244;-49.0990189;venda;portal_imoveis
608;Casa à Venda em Blumenau no bairro Garcia;1190000.0;4;4;684.0;3;casa;84;Garcia;15911;5336;5.0;Rua Ovino Kohler;89022-185;;-26.9469127;-49.0700698;venda;portal_imoveis
609;Apartamento no bairro Itoupava Central, 2 dormitórios, sala, cozinha, banheiro, área de serviço, 1 v;200000.0;2;1;48.0;1;apartamento;;Itoupava Central;28164;8715;45.0;Rua Professor Jacob Ineichen;89066-598;;-26.8426432;-49.1113311;venda;zap_imoveis
610;Condo Hotel em Blumenau - SC, para investir;200000.0;1;1;12.0;1;apartamento;;Centro;5004;1622;2.0;Rua Paulo Zimmermann;89010-170;11.8;-26.9151262;-49.0709675;venda;zap_imoveis
614;Lote/Terreno à Venda em Blumenau no bairro Progresso;2490000.0;0;0;11755.0;0;loteterreno;;Progresso;15005;4852;7.0;Rua Progresso;89026-200;;-26.9916191;-49.0725355;venda;portal_imoveis
615;Casa à Venda em Blumenau no bairro Fortaleza Alta;800000.0;3;2;480.0;5;casa;38;Fortaleza Alta;4507;1398;5.0;Rua Ruth Marcia Piske;89058-001;;-26.8562018;-49.0644303;venda;portal_imoveis
616;Lote/Terreno para Alugar em Blumenau no bairro Água Verde;1500.0;0;0;420.0;0;loteterreno;465;Agua Verde;16186;5526;5.0;Rua Benedito Novo;89041-400;;-26.9120131;-49.1153475;locação;portal_imoveis
617;Apartamento à Venda em Blumenau no bairro Jardim Blumenau;1300000.0;3;5;224.0;2;apartamento;261;Jardim Blumenau;2855;1004;1.0;Rua Coronel Vidal Ramos;89010-330;10.5;-26.9258216;-49.0628314;venda;portal_imoveis
618;Apartamento à Venda em Blumenau no bairro Victor Konder;1737890.0;4;5;345.0;3;apartamento;;Victor Konder;4612;1990;1.0;Rua Walter Thomsen;89012-570;10.25;-26.9084189;-49.0804815;venda;portal_imoveis
621;Lotes a venda no bairro Itoupava Central!;200000.0;0;0;0.0;0;loteterreno;;Itoupava Seca;4464;1616;3.0;Rua Engenheiro Paul Werner;89030-101;20.7;-26.8962619;-49.0824227;venda;zap_imoveis
624;Casa à Venda em Blumenau no bairro Velha Central;750000.0;3;3;192.0;2;casa;315;Velha Central;18779;6119;7.0;Rua Osvaldo Bruno Werplotz;89046-100;;-26.9333088;-49.1335628;venda;portal_imoveis
625;Casa à Venda em Blumenau no bairro Vorstadt;540000.0;5;3;100.0;4;casa;134;Vorstadt;4269;1690;4.0;Rua Itajuba;89015-330;16.6;-26.9038588;-49.0407955;venda;portal_imoveis
627;Casa à Venda em Blumenau no bairro Itoupava Central;330000.0;2;2;100.0;2;casa;729;Itoupava Central;28164;8715;45.0;Rua Norma Hadlich;89069-040;;-26.8066061;-49.0942941;venda;portal_imoveis
628;Apartamento à Venda em Blumenau no bairro Garcia;349000.0;3;2;88.0;1;apartamento;1400;Garcia;15911;5336;5.0;Rua Amazonas;89022-006;18.4;-26.9613043;-49.0655583;venda;portal_imoveis
629;Apartamento 2 dormitórios, 1 vaga de garagem.;200000.0;2;1;55.0;1;apartamento;;Itoupava Central;28164;8715;45.0;Rua Gustavo Zimmermann;89063-003;18.3;-26.8036671;-49.0875859;venda;zap_imoveis
632;Lote/Terreno à Venda em Blumenau no bairro Fortaleza;300000.0;0;0;315.0;0;loteterreno;108;Fortaleza;13196;4212;5.0;Rua Seberino Juliao Anacleto;89056-440;;-26.8694227;-49.0692745;venda;portal_imoveis
633;Casa à Venda em Blumenau no bairro Itoupava Norte;820000.0;3;3;169.0;2;casa;126;Itoupava Norte;15648;5258;5.0;Rua Soldado Mario Luiz Bertolini;89053-180;12.2;-26.8821532;-49.0724932;venda;portal_imoveis
634;Casa para Alugar em Blumenau no bairro Itoupava Norte;10000.0;4;2;2000.0;4;casa;375;Itoupava Norte;15648;5258;5.0;Rua Augusto Sutter;89052-680;16.35;-26.8845075;-49.0839477;locação;portal_imoveis
635;Lote/Terreno à Venda em Blumenau no bairro Do Salto;595000.0;0;0;594.43;0;loteterreno;;Do Salto;4558;1445;2.0;Rua Caramuru;89031-030;;-26.8907869;-49.0925658;venda;portal_imoveis
